country,country (volcano.csv),evidence_category,last_eruption_year,major_rock_1,major_rock_2,major_rock_3,major_rock_4,major_rock_5,minor_rock_1,minor_rock_2,minor_rock_3,minor_rock_4,minor_rock_5,Pop. Density (per sq. mi.),primary_volcano_type,Region,region,subregion,tectonic_settings,volcano_name,volcano_number,Area (sq. mi.),elevation,latitude,longitude,Population,population_within_100_km,population_within_10_km,population_within_30_km,population_within_5_km
Japan,Japan,Eruption Dated,-6850,Andesite / Basaltic Andesite,Basalt / Picro-Basalt,Dacite, , , , , , , ,"337,4",Shield,ASIA (EX. NEAR EAST),"Japan, Taiwan, Marianas",Honshu,Subduction zone / Continental crust (>25 km),Abu,283001,377835,641,34.5,131.6,127463611,4071152,9594,117805,3597
Chile,Chile,Evidence Credible,Unknown,Dacite,Andesite / Basaltic Andesite, , , , , , , , ,"21,3",Stratovolcano,LATIN AMER. & CARIB,South America,"Northern Chile, Bolivia and Argentina",Subduction zone / Continental crust (>25 km),Acamarachi,355096,756950,6023,-23.292,-67.618,16134219,9092,7,294,0
Guatemala,Guatemala,Eruption Observed,1972,Andesite / Basaltic Andesite,Dacite, , , ,Basalt / Picro-Basalt, , , , ,"112,9",Stratovolcano,LATIN AMER. & CARIB,México and Central America,Guatemala,Subduction zone / Continental crust (>25 km),Acatenango,342080,108890,3976,14.501,-90.876,12293545,7634778,60730,1042836,4329
Turkey,Turkey,Eruption Dated,-2080,Rhyolite,Dacite,Basalt / Picro-Basalt,Andesite / Basaltic Andesite, , , , , , ,"90,2",Caldera,NEAR EAST,Mediterranean and Western Asia,Turkey,Intraplate / Continental crust (>25 km),Acigol-Nevsehir,213004,780580,1683,38.537,34.621,70413958,2253483,127863,218469,127863
United States,United States,Eruption Dated,950,Andesite / Basaltic Andesite,Basalt / Picro-Basalt, , , ,Dacite, , , , ,"31,0",Stratovolcano,NORTHERN AMERICA,Canada and Western USA,USA (Washington),Subduction zone / Continental crust (>25 km),Adams,321040,9631420,3742,46.206,-121.49,298444215,393303,70,4019,0
Japan,Japan,Eruption Observed,1996,Andesite / Basaltic Andesite, , , , ,Dacite,Basalt / Picro-Basalt, , , ,"337,4",Stratovolcano,ASIA (EX. NEAR EAST),"Japan, Taiwan, Marianas",Honshu,Subduction zone / Continental crust (>25 km),Adatarayama,283170,377835,1728,37.647,140.281,127463611,5024654,3936,717078,428
Ethiopia,Ethiopia,Evidence Credible,Unknown,Rhyolite,Basalt / Picro-Basalt,Trachyte / Trachydacite, , , , , , , ,"66,3",Stratovolcano,SUB-SAHARAN AFRICA,Africa and Red Sea,Africa (northeastern) and Red Sea,Rift zone / Intermediate crust (15-25 km),Adwa,221170,1127127,1733,10.07,40.84,74777981,1242922,485,18645,101
Ethiopia,Ethiopia,Evidence Uncertain,Unknown,Rhyolite, , , , ,Basalt / Picro-Basalt,Trachybasalt / Tephrite Basanite,Andesite / Basaltic Andesite, , ,"66,3",Stratovolcano,SUB-SAHARAN AFRICA,Africa and Red Sea,Africa (northeastern) and Red Sea,Rift zone / Intermediate crust (15-25 km),Afdera,221110,1127127,1250,13.088,40.853,74777981,161009,6042,8611,51
United States,United States,Eruption Observed,1917,Basalt / Picro-Basalt,Andesite / Basaltic Andesite, , , , , , , , ,"31,0",Stratovolcano,NORTHERN AMERICA,"Japan, Taiwan, Marianas","Izu, Volcano, and Mariana Islands",Subduction zone / Crustal thickness unknown,Agrigan,284160,9631420,965,18.77,145.67,298444215,0,0,0,0
Guatemala,Guatemala,Evidence Credible,Unknown,Andesite / Basaltic Andesite, , , , ,Dacite, , , , ,"112,9",Stratovolcano,LATIN AMER. & CARIB,México and Central America,Guatemala,Subduction zone / Continental crust (>25 km),Agua,342100,108890,3760,14.465,-90.743,12293545,7441660,114404,2530449,9890
Portugal,Portugal,Eruption Observed,1564,Trachyte / Trachydacite,Trachybasalt / Tephrite Basanite,Basalt / Picro-Basalt,Trachyandesite / Basaltic Trachyandesite, , , , , , ,"114,8",Stratovolcano,WESTERN EUROPE,Atlantic Ocean,Azores,Rift zone / Oceanic crust (< 15 km),Agua de Pau,382090,92391,947,37.77,-25.47,10605870,119653,17272,113131,406
Chile,Chile,Eruption Dated,-1250,Dacite, , , , , , , , , ,"21,3",Stratovolcano,LATIN AMER. & CARIB,South America,Southern Chile and Argentina,Subduction zone / Continental crust (>25 km),Aguilera,358062,756950,2546,-50.33,-73.75,16134219,5698,0,103,0
Indonesia,Indonesia,Eruption Observed,2019,Andesite / Basaltic Andesite, , , , , , , , , ,"127,9",Stratovolcano,ASIA (EX. NEAR EAST),Indonesia,Lesser Sunda Islands,Subduction zone / Continental crust (>25 km),Agung,264020,1919440,2997,-8.343,115.508,245452739,4550176,76781,968381,5657
United States,United States,Eruption Dated,2014,Andesite / Basaltic Andesite,Basalt / Picro-Basalt, , , , , , , , ,"31,0",Others,NORTHERN AMERICA,"Japan, Taiwan, Marianas","Izu, Volcano, and Mariana Islands",Subduction zone / Crustal thickness unknown,Ahyi,284141,9631420,-75,20.42,145.03,298444215,0,0,0,0
Japan,Japan,Eruption Observed,2020,Andesite / Basaltic Andesite,Dacite,Rhyolite, , , , , , , ,"337,4",Caldera,ASIA (EX. NEAR EAST),"Japan, Taiwan, Marianas",Ryukyu Islands and Kyushu,Subduction zone / Continental crust (>25 km),Aira,282080,377835,1117,31.593,130.657,127463611,2610033,113874,905254,4918
Russia,Russia,Eruption Observed,1996,Andesite / Basaltic Andesite,Dacite, , , ,Basalt / Picro-Basalt,Rhyolite, , , ,"8,4",Stratovolcano,C.W. OF IND. STATES,Kamchatka and Mainland Asia,Kamchatka Peninsula,Subduction zone / Continental crust (>25 km),Akademia Nauk,300125,17075200,1180,53.98,159.45,142893540,12484,3,615,3
Japan,Japan,Evidence Uncertain,Unknown,Andesite / Basaltic Andesite, , , , ,Dacite, , , , ,"337,4",Stratovolcano,ASIA (EX. NEAR EAST),"Japan, Taiwan, Marianas",Honshu,Subduction zone / Continental crust (>25 km),Akagisan,283130,377835,1828,36.56,139.193,127463611,16718375,4538,1116366,961
Japan,Japan,Eruption Observed,2008,Andesite / Basaltic Andesite,Dacite,Basalt / Picro-Basalt,Rhyolite, , , , , , ,"337,4",Caldera,ASIA (EX. NEAR EAST),"Japan, Taiwan, Marianas",Hokkaido,Subduction zone / Continental crust (>25 km),Akan,285070,377835,1499,43.384,144.013,127463611,929538,2062,9756,2062
Japan,Japan,Eruption Observed,1971,Basalt / Picro-Basalt,Andesite / Basaltic Andesite, , , , , , , , ,"337,4",Stratovolcano,ASIA (EX. NEAR EAST),"Japan, Taiwan, Marianas",Honshu,Subduction zone / Continental crust (>25 km),Akita-Komagatake,283230,377835,1637,39.761,140.799,127463611,2521611,3864,216708,376
Japan,Japan,Eruption Observed,1997,Andesite / Basaltic Andesite, , , , ,Dacite, , , , ,"337,4",Stratovolcano,ASIA (EX. NEAR EAST),"Japan, Taiwan, Marianas",Honshu,Subduction zone / Continental crust (>25 km),Akita-Yakeyama,283260,377835,1366,39.964,140.757,127463611,3122037,721,55493,127
Japan,Japan,Evidence Uncertain,Unknown,Andesite / Basaltic Andesite,Dacite, , , , , , , , ,"337,4",Stratovolcano,ASIA (EX. NEAR EAST),"Japan, Taiwan, Marianas",Ryukyu Islands and Kyushu,Subduction zone / Oceanic crust (< 15 km),Akusekijima,282022,377835,555,29.465,129.594,127463611,749,52,199,52
United States,United States,Eruption Observed,1992,Basalt / Picro-Basalt,Andesite / Basaltic Andesite,Trachyandesite / Basaltic Trachyandesite, , ,Trachyte / Trachydacite,Dacite, , , ,"31,0",Stratovolcano,NORTHERN AMERICA,Alaska,Aleutian Islands,Subduction zone / Intermediate crust (15-25 km),Akutan,311320,9631420,1303,54.134,-165.986,298444215,4361,24,233,0
Russia,Russia,Eruption Observed,2018,Basalt / Picro-Basalt,Andesite / Basaltic Andesite, , , , , , , , ,"8,4",Stratovolcano,C.W. OF IND. STATES,Kuril Islands,Kuril Islands,Subduction zone / Continental crust (>25 km),Alaid,290390,17075200,2285,50.861,155.565,142893540,2887,64,64,0
Ethiopia,Ethiopia,Eruption Observed,1915,Basalt / Picro-Basalt,Trachyte / Trachydacite,Trachyandesite / Basaltic Trachyandesite, , , , , , , ,"66,3",Shield,SUB-SAHARAN AFRICA,Africa and Red Sea,Africa (northeastern) and Red Sea,Rift zone / Intermediate crust (15-25 km),Alayta,221112,1127127,1496,12.888,40.573,74777981,330411,925,13459,156
Ecuador,Ecuador,Eruption Observed,1993,Basalt / Picro-Basalt, , , , ,Rhyolite,Dacite,Andesite / Basaltic Andesite, , ,"47,8",Shield,LATIN AMER. & CARIB,South America,Galapagos Islands,Rift zone / Oceanic crust (< 15 km),Alcedo,353040,283560,1130,-0.43,-91.12,13547510,10756,290,388,290
Ethiopia,Ethiopia,Evidence Credible,Unknown,Basalt / Picro-Basalt,Trachyte / Trachydacite,Rhyolite, , , , , , , ,"66,3",Stratovolcano,SUB-SAHARAN AFRICA,Africa and Red Sea,Africa (northeastern) and Red Sea,Rift zone / Intermediate crust (15-25 km),Ale Bagu,221090,1127127,988,13.512,40.631,74777981,278270,919,8424,2
Eritrea,Eritrea,Evidence Credible,Unknown,Rhyolite,Basalt / Picro-Basalt,Andesite / Basaltic Andesite,Trachyandesite / Basaltic Trachyandesite,Trachyte / Trachydacite, , , , , ,"39,5",Stratovolcano,SUB-SAHARAN AFRICA,Africa and Red Sea,Africa (northeastern) and Red Sea,Rift zone / Intermediate crust (15-25 km),Alid,221040,121320,904,14.88,39.92,4786994,1216179,2447,25942,517
Ecuador,Ecuador,Eruption Dated,-2450,Andesite / Basaltic Andesite,Rhyolite,Dacite, , , , , , , ,"47,8",Stratovolcano,LATIN AMER. & CARIB,South America,Ecuador,Subduction zone / Continental crust (>25 km),Aliso,352031,283560,4267,-0.53,-78,13547510,0,0,0,0
Canada,Canada,Evidence Credible,Unknown,Basalt / Picro-Basalt,Trachybasalt / Tephrite Basanite, , , , , , , , ,"3,3",Volcanic field,NORTHERN AMERICA,Canada and Western USA,Canada,Intraplate / Continental crust (>25 km),Alligator Lake,320020,9984670,2217,60.42,-135.42,33098932,20636,0,47,0
Guatemala,Guatemala,Eruption Observed,1818,Dacite,Andesite / Basaltic Andesite, , , ,Basalt / Picro-Basalt, , , , ,"112,9",Stratovolcano,LATIN AMER. & CARIB,México and Central America,Guatemala,Subduction zone / Continental crust (>25 km),Almolonga,342040,108890,3173,14.797,-91.519,12293545,6828403,287487,1126942,91323
Russia,Russia,Eruption Dated,1600,Basalt / Picro-Basalt,Andesite / Basaltic Andesite, , , ,Rhyolite,Dacite, , , ,"8,4",Stratovolcano,C.W. OF IND. STATES,Kamchatka and Mainland Asia,Kamchatka Peninsula,Subduction zone / Continental crust (>25 km),Alney-Chashakondzha,300450,17075200,2570,56.656,159.647,142893540,10679,0,3,0
Ethiopia,Ethiopia,Eruption Observed,2008,Basalt / Picro-Basalt,Andesite / Basaltic Andesite,Trachyte / Trachydacite,Rhyolite, , , , , , ,"66,3",Others,SUB-SAHARAN AFRICA,Africa and Red Sea,Africa (northeastern) and Red Sea,Rift zone / Intermediate crust (15-25 km),Alu-Dalafilla,221060,1127127,578,13.793,40.553,74777981,478054,9,11209,0
Ethiopia,Ethiopia,Eruption Dated,-50,Rhyolite,Dacite,Basalt / Picro-Basalt, , , , , , , ,"66,3",Stratovolcano,SUB-SAHARAN AFRICA,Africa and Red Sea,Africa (northeastern) and Red Sea,Rift zone / Continental crust (>25 km),Alutu,221270,1127127,2335,7.77,38.78,74777981,6813710,25619,314216,6011
United States,United States,Eruption Observed,1796,Andesite / Basaltic Andesite, , , , , , , , , ,"31,0",Stratovolcano,NORTHERN AMERICA,Alaska,Aleutian Islands,Subduction zone / Continental crust (>25 km),Amak,311390,9631420,488,55.424,-163.149,298444215,1345,0,0,0
Indonesia,Indonesia,Evidence Credible,Unknown,Andesite / Basaltic Andesite, , , , , , , , , ,"127,9",Stratovolcano,ASIA (EX. NEAR EAST),Indonesia,Halmahera,Subduction zone / Oceanic crust (< 15 km),Amasing,268072,1919440,1030,-0.53,127.48,245452739,92417,803,26015,59
Vanuatu,Vanuatu,Eruption Observed,2018,Basalt / Picro-Basalt, , , , , , , , , ,"17,1",Shield,OCEANIA,Melanesia and Australia,Vanuatu,Subduction zone / Intermediate crust (15-25 km),Ambae,257030,12200,1496,-15.389,167.835,208869,73308,1279,4326,73
Philippines,Philippines,Unrest / Holocene,Unknown,Dacite,Andesite / Basaltic Andesite, , , , , , , , ,"298,2",Others,ASIA (EX. NEAR EAST),Philippines and SE Asia,Luzon,Subduction zone / Continental crust (>25 km),Ambalatungan Group,273088,300000,2329,17.32,121.1,89468677,4652400,3803,55724,493
Indonesia,Indonesia,Eruption Observed,2005,Andesite / Basaltic Andesite, , , , , , , , , ,"127,9",Complex,ASIA (EX. NEAR EAST),Indonesia,Sulawesi,Subduction zone / Continental crust (>25 km),Ambang,266020,1919440,1795,0.75,124.42,245452739,1730602,46469,319137,9155
Papua New Guinea,Papua New Guinea,Eruption Dated,-350,Phono-tephrite /  Tephri-phonolite,Trachybasalt / Tephrite Basanite,Trachyandesite / Basaltic Trachyandesite,Basalt / Picro-Basalt,Trachyte / Trachydacite, , , , , ,"12,3",Stratovolcano,OCEANIA,Melanesia and Australia,New Ireland,Subduction zone / Crustal thickness unknown,Ambitle,254020,462840,450,-4.08,153.65,5670544,24367,9195,9779,1643
Madagascar,Madagascar,Evidence Credible,Unknown,Basalt / Picro-Basalt,Rhyolite,Trachyte / Trachydacite,Phonolite,Foidite, , , , , ,"31,7",Volcanic field,SUB-SAHARAN AFRICA,Middle East and Indian Ocean,Indian Ocean (western),Intraplate / Continental crust (>25 km),Ambre-Bobaomby,233011,587040,1475,-12.6,49.15,18595469,408436,20396,51426,20396
Vanuatu,Vanuatu,Eruption Observed,2018,Basalt / Picro-Basalt,Andesite / Basaltic Andesite,Dacite, , , , , , , ,"17,1",Others,OCEANIA,Melanesia and Australia,Vanuatu,Subduction zone / Intermediate crust (15-25 km),Ambrym,257040,12200,1334,-16.25,168.12,208869,63999,186,10826,9
France,France,Evidence Credible,Unknown,Basalt / Picro-Basalt, , , , , , , , , ,"111,3",Stratovolcano,WESTERN EUROPE,Middle East and Indian Ocean,Indian Ocean (southern),Rift zone / Oceanic crust (< 15 km),Amsterdam Island,234001,547030,881,-37.83,77.52,60876136,0,0,0,0
United States,United States,Eruption Observed,1997,Andesite / Basaltic Andesite, , , , , , , , , ,"31,0",Stratovolcano,NORTHERN AMERICA,Alaska,Aleutian Islands,Subduction zone / Intermediate crust (15-25 km),Amukta,311190,9631420,1066,52.5,-171.252,298444215,0,0,0,0
United States,United States,Eruption Observed,2008,Andesite / Basaltic Andesite,Dacite,Basalt / Picro-Basalt,Trachyandesite / Basaltic Trachyandesite, , , , , , ,"31,0",Stratovolcano,NORTHERN AMERICA,"Japan, Taiwan, Marianas","Izu, Volcano, and Mariana Islands",Subduction zone / Crustal thickness unknown,Anatahan,284200,9631420,790,16.35,145.67,298444215,0,0,0,0
Russia,Russia,Evidence Uncertain,Unknown,Basalt / Picro-Basalt,Andesite / Basaltic Andesite, , , , , , , , ,"8,4",Stratovolcano,C.W. OF IND. STATES,Kamchatka and Mainland Asia,Kamchatka Peninsula,Subduction zone / Continental crust (>25 km),Anaun,300390,17075200,1828,56.32,158.83,142893540,5933,4,56,2
Peru,Peru,Eruption Dated,1490,Trachyandesite / Basaltic Trachyandesite, , , , ,Trachyte / Trachydacite, , , , ,"22,0",Pyroclastic cone,LATIN AMER. & CARIB,South America,Peru,Subduction zone / Continental crust (>25 km),Andahua-Orcopampa,354004,1285220,4713,-15.42,-72.33,28302603,171897,10317,16541,10317
Vanuatu,Vanuatu,Evidence Uncertain,Unknown,Basalt / Picro-Basalt,Andesite / Basaltic Andesite, , , , , , , , ,"17,1",Stratovolcano,OCEANIA,Melanesia and Australia,Vanuatu,Subduction zone / Intermediate crust (15-25 km),Aneityum,257110,12200,852,-20.2,169.78,208869,22731,692,703,176
United States,United States,Eruption Observed,1931,Andesite / Basaltic Andesite,Dacite, , , ,Basalt / Picro-Basalt,Trachyte / Trachydacite,Trachyandesite / Basaltic Trachyandesite, , ,"31,0",Caldera,NORTHERN AMERICA,Alaska,Alaska Peninsula,Subduction zone / Continental crust (>25 km),Aniakchak,312090,9631420,1341,56.88,-158.17,298444215,479,0,36,0
Chile,Chile,Eruption Dated,-230,Basalt / Picro-Basalt,Andesite / Basaltic Andesite, , , , , , , , ,"21,3",Stratovolcano,LATIN AMER. & CARIB,South America,Central Chile and Argentina,Subduction zone / Continental crust (>25 km),Antillanca Volcanic Complex,357153,756950,1979,-40.783,-72.15,16134219,530586,521,5986,87
Ecuador,Ecuador,Eruption Observed,1802,Andesite / Basaltic Andesite,Dacite, , , , , , , , ,"47,8",Stratovolcano,LATIN AMER. & CARIB,South America,Ecuador,Subduction zone / Continental crust (>25 km),Antisana,352030,283560,5753,-0.481,-78.141,13547510,3314142,2220,56154,232
Argentina,Argentina,Evidence Uncertain,Unknown,Andesite / Basaltic Andesite, , , , , , , , , ,"14,4",Pyroclastic cone,LATIN AMER. & CARIB,South America,"Northern Chile, Bolivia and Argentina",Subduction zone / Continental crust (>25 km),Antofagasta Volcanic Field,355180,2766890,3495,-26.12,-67.4,39921833,4295,188,257,188
Chile,Chile,Eruption Observed,1869,Basalt / Picro-Basalt,Andesite / Basaltic Andesite, , , , , , , , ,"21,3",Stratovolcano,LATIN AMER. & CARIB,South America,Central Chile and Argentina,Subduction zone / Continental crust (>25 km),Antuco,357080,756950,2979,-37.406,-71.349,16134219,381623,474,3872,117
Japan,Japan,Eruption Observed,1785,Basalt / Picro-Basalt,Andesite / Basaltic Andesite, , , , , , , , ,"337,4",Stratovolcano,ASIA (EX. NEAR EAST),"Japan, Taiwan, Marianas","Izu, Volcano, and Mariana Islands",Subduction zone / Oceanic crust (< 15 km),Aogashima,284060,377835,423,32.458,139.759,127463611,8559,232,232,232
Chile,Chile,Eruption Dated,-590,Basalt / Picro-Basalt, , , , , , , , , ,"21,3",Pyroclastic cone,LATIN AMER. & CARIB,South America,Southern Chile and Argentina,Subduction zone / Continental crust (>25 km),Apagado,358024,756950,1210,-41.88,-72.58,16134219,354002,44,4474,5
El Salvador,El Salvador,Evidence Credible,Unknown,Basalt / Picro-Basalt,Andesite / Basaltic Andesite,Trachyandesite / Basaltic Trachyandesite,Dacite,Rhyolite, , , , , ,"324,3",Stratovolcano,LATIN AMER. & CARIB,México and Central America,El Salvador and Honduras,Subduction zone / Continental crust (>25 km),Apaneca Range,343010,21040,2036,13.891,-89.786,6822378,6215853,151502,1113282,11141
El Salvador,El Salvador,Evidence Credible,Unknown,Dacite,Andesite / Basaltic Andesite,Basalt / Picro-Basalt, , , , , , , ,"324,3",Volcanic field,LATIN AMER. & CARIB,México and Central America,El Salvador and Honduras,Subduction zone / Continental crust (>25 km),Apastepeque Field,343071,21040,700,13.72,-88.77,6822378,6372608,377730,687849,377730
Philippines,Philippines,Unrest / Holocene,Unknown,Andesite / Basaltic Andesite,Dacite, , , , , , , , ,"298,2",Stratovolcano,ASIA (EX. NEAR EAST),Philippines and SE Asia,Mindanao,Subduction zone / Continental crust (>25 km),Apo,271030,300000,2938,6.989,125.269,89468677,7768291,5431,767800,1355
Nicaragua,Nicaragua,Eruption Dated,-50,Dacite,Andesite / Basaltic Andesite,Basalt / Picro-Basalt, , , , , , , ,"43,0",Others,LATIN AMER. & CARIB,México and Central America,Nicaragua,Subduction zone / Continental crust (>25 km),Apoyeque,344091,129494,518,12.242,-86.342,5570129,3445854,116718,1342581,2369
Argentina,Argentina,Evidence Credible,Unknown,Andesite / Basaltic Andesite,Dacite, , , , , , , , ,"14,4",Stratovolcano,LATIN AMER. & CARIB,South America,"Northern Chile, Bolivia and Argentina",Subduction zone / Continental crust (>25 km),Aracar,355160,2766890,6095,-24.29,-67.783,39921833,4803,0,94,0
Armenia,Armenia,Evidence Credible,Unknown,Andesite / Basaltic Andesite,Basalt / Picro-Basalt,Dacite,Rhyolite, , , , , , ,"99,9",Stratovolcano,C.W. OF IND. STATES,Mediterranean and Western Asia,Western Asia,Intraplate / Continental crust (>25 km),Aragats,214060,29800,4095,40.53,44.2,2976372,3046562,163,150143,0
Turkey,Turkey,Eruption Observed,1840,Andesite / Basaltic Andesite,Dacite,Basalt / Picro-Basalt,Trachybasalt / Tephrite Basanite,Rhyolite, , , , , ,"90,2",Stratovolcano,NEAR EAST,Mediterranean and Western Asia,Turkey,Intraplate / Continental crust (>25 km),Ararat,213040,780580,5165,39.7,44.3,70413958,2811646,1239,135563,25
Philippines,Philippines,Evidence Uncertain,Unknown,Basalt / Picro-Basalt,Trachyandesite / Basaltic Trachyandesite, , , ,Trachybasalt / Tephrite Basanite,Andesite / Basaltic Andesite, , , ,"298,2",Stratovolcano,ASIA (EX. NEAR EAST),Philippines and SE Asia,Luzon,Subduction zone / Continental crust (>25 km),Arayat,273084,300000,1026,15.2,120.742,89468677,27216491,190674,2805269,7846
Djibouti,Djibouti,Eruption Observed,1978,Basalt / Picro-Basalt,Trachybasalt / Tephrite Basanite,Rhyolite, , , , , , , ,"21,2",Others,SUB-SAHARAN AFRICA,Africa and Red Sea,Africa (northeastern) and Red Sea,Rift zone / Intermediate crust (15-25 km),Ardoukoba,221126,23000,298,11.58,42.47,486530,560146,2895,6898,2895
Costa Rica,Costa Rica,Eruption Observed,2010,Andesite / Basaltic Andesite,Basalt / Picro-Basalt, , , ,Dacite, , , , ,"79,8",Stratovolcano,LATIN AMER. & CARIB,México and Central America,Costa Rica,Subduction zone / Continental crust (>25 km),Arenal,345033,51100,1670,10.463,-84.703,4075261,3027485,15643,96512,3429
Yemen,Yemen,Eruption Observed,500,Trachybasalt / Tephrite Basanite,Basalt / Picro-Basalt, , , ,Trachyandesite / Basaltic Trachyandesite, , , , ,"40,6",Volcanic field,NEAR EAST,Middle East and Indian Ocean,Middle East (southern),Intraplate / Continental crust (>25 km),"Arhab, Harra of",231090,527970,3100,15.63,44.08,21456188,6517834,284443,820695,284443
Indonesia,Indonesia,Eruption Observed,1952,Andesite / Basaltic Andesite,Basalt / Picro-Basalt, , , , , , , , ,"127,9",Stratovolcano,ASIA (EX. NEAR EAST),Indonesia,Java,Subduction zone / Continental crust (>25 km),Arjuno-Welirang,263290,1919440,3339,-7.733,112.575,245452739,25385433,53983,4143137,2584
China,China,Eruption Dated,0,Basalt / Picro-Basalt, , , , , , , , , ,"136,9",Pyroclastic cone,ASIA (EX. NEAR EAST),Kamchatka and Mainland Asia,China (eastern),Intraplate / Continental crust (>25 km),Arxan-Chaihe,305011,9596960,1677,47.45,120.8,1313973713,188163,6435,6435,6435
Russia,Russia,Evidence Credible,Unknown,Basalt / Picro-Basalt,Andesite / Basaltic Andesite, , , ,Dacite,Rhyolite, , , ,"8,4",Complex,C.W. OF IND. STATES,Kamchatka and Mainland Asia,Kamchatka Peninsula,Subduction zone / Continental crust (>25 km),Asacha,300058,17075200,1910,52.355,157.827,142893540,238467,0,34,0
Japan,Japan,Eruption Observed,2019,Andesite / Basaltic Andesite,Dacite, , , , , , , , ,"337,4",Complex,ASIA (EX. NEAR EAST),"Japan, Taiwan, Marianas",Honshu,Subduction zone / Continental crust (>25 km),Asamayama,283110,377835,2568,36.406,138.523,127463611,7629353,22371,457576,583
United Kingdom,United Kingdom,Eruption Dated,1508,Basalt / Picro-Basalt,Trachybasalt / Tephrite Basanite,Trachyandesite / Basaltic Trachyandesite,Trachyte / Trachydacite,Rhyolite, , , , , ,"247,6",Stratovolcano,WESTERN EUROPE,Atlantic Ocean,Atlantic Ocean (central),Rift zone / Oceanic crust (< 15 km),Ascension,385050,244820,858,-7.95,-14.37,60609153,1149,1149,1149,614
Iceland,Iceland,Eruption Observed,1961,Basalt / Picro-Basalt, , , , ,Rhyolite, , , , ,"2,9",Stratovolcano,WESTERN EUROPE,Iceland and Arctic Ocean,Iceland (northeastern),Rift zone / Oceanic crust (< 15 km),Askja,373060,103000,1080,65.033,-16.783,299388,13028,0,0,0
Japan,Japan,Eruption Observed,2020,Andesite / Basaltic Andesite,Dacite,Rhyolite,Basalt / Picro-Basalt, , , , , , ,"337,4",Caldera,ASIA (EX. NEAR EAST),"Japan, Taiwan, Marianas",Ryukyu Islands and Kyushu,Subduction zone / Continental crust (>25 km),Asosan,282110,377835,1592,32.884,131.104,127463611,6507519,75559,234591,75559
Eritrea,Eritrea,Evidence Credible,Unknown,Basalt / Picro-Basalt, , , , , , , , , ,"39,5",Volcanic field,SUB-SAHARAN AFRICA,Africa and Red Sea,Africa (northeastern) and Red Sea,Rift zone / Intermediate crust (15-25 km),Assab Volcanic Field,221125,121320,987,12.95,42.43,4786994,181952,9,97,9
United States,United States,Eruption Observed,1906,Andesite / Basaltic Andesite, , , , , , , , , ,"31,0",Stratovolcano,NORTHERN AMERICA,"Japan, Taiwan, Marianas","Izu, Volcano, and Mariana Islands",Subduction zone / Crustal thickness unknown,Asuncion,284150,9631420,857,19.671,145.406,298444215,0,0,0,0
Japan,Japan,Eruption Observed,885,Andesite / Basaltic Andesite,Rhyolite,Dacite,Basalt / Picro-Basalt, , , , , , ,"337,4",Caldera,ASIA (EX. NEAR EAST),"Japan, Taiwan, Marianas",Ryukyu Islands and Kyushu,Subduction zone / Continental crust (>25 km),Ata,282070,377835,924,31.22,130.57,127463611,1891380,93134,171590,93134
Ecuador,Ecuador,Eruption Dated,-320,Andesite / Basaltic Andesite,Dacite, , , , , , , , ,"47,8",Stratovolcano,LATIN AMER. & CARIB,South America,Ecuador,Subduction zone / Continental crust (>25 km),Atacazo,352021,283560,4463,-0.353,-78.617,13547510,3769593,212988,1837303,449
United States,United States,Eruption Observed,1812,Basalt / Picro-Basalt,Dacite,Andesite / Basaltic Andesite, , , , , , , ,"31,0",Stratovolcano,NORTHERN AMERICA,Alaska,Aleutian Islands,Subduction zone / Intermediate crust (15-25 km),Atka,311160,9631420,1448,52.331,-174.139,298444215,207,0,207,0
Canada,Canada,Evidence Credible,Unknown,Trachybasalt / Tephrite Basanite,Basalt / Picro-Basalt, , , ,Foidite, , , , ,"3,3",Pyroclastic cone,NORTHERN AMERICA,Canada and Western USA,Canada,Intraplate / Continental crust (>25 km),Atlin Volcanic Field,320030,9984670,1880,59.68,-133.32,33098932,956,0,94,0
Argentina,Argentina,Evidence Credible,Unknown,Andesite / Basaltic Andesite,Dacite,Basalt / Picro-Basalt, , , , , , , ,"14,4",Caldera,LATIN AMER. & CARIB,South America,Central Chile and Argentina,Subduction zone / Continental crust (>25 km),"Atuel, Caldera del",357023,2766890,5189,-34.65,-70.05,39921833,676916,297,1003,297
New Zealand,New Zealand,Eruption Dated,1350,Trachybasalt / Tephrite Basanite,Basalt / Picro-Basalt,Foidite, , , , , , , ,"15,2",Volcanic field,OCEANIA,New Zealand to Fiji,New Zealand,Subduction zone / Continental crust (>25 km),Auckland Volcanic Field,241020,268680,260,-36.9,174.87,4076140,1446768,1049110,1222436,1049110
United States,United States,Eruption Observed,2006,Andesite / Basaltic Andesite,Dacite, , , ,Rhyolite,Basalt / Picro-Basalt,Trachyandesite / Basaltic Trachyandesite, , ,"31,0",Lava dome,NORTHERN AMERICA,Alaska,Alaska (southwestern),Subduction zone / Continental crust (>25 km),Augustine,313010,9631420,1252,59.363,-153.43,298444215,759,0,0,0
Russia,Russia,Eruption Observed,2001,Andesite / Basaltic Andesite,Basalt / Picro-Basalt, , , ,Dacite, , , , ,"8,4",Stratovolcano,C.W. OF IND. STATES,Kamchatka and Mainland Asia,Kamchatka Peninsula,Subduction zone / Continental crust (>25 km),Avachinsky,300100,17075200,2717,53.256,158.836,142893540,270205,0,180016,0
Russia,Russia,Evidence Credible,Unknown,Trachybasalt / Tephrite Basanite,Phono-tephrite /  Tephri-phonolite, , , ,Basalt / Picro-Basalt, , , , ,"8,4",Volcanic field,C.W. OF IND. STATES,Kamchatka and Mainland Asia,Russia (southeastern),Rift zone / Continental crust (>25 km),Azas Plateau,302070,17075200,2765,52.433,98.303,142893540,4532,142,142,142
Chile,Chile,Evidence Uncertain,Unknown,Andesite / Basaltic Andesite,Dacite, , , , , , , , ,"21,3",Stratovolcano,LATIN AMER. & CARIB,South America,"Northern Chile, Bolivia and Argentina",Subduction zone / Continental crust (>25 km),"Azufre, Cerro del",355061,756950,5846,-21.787,-68.237,16134219,55567,58,1143,0
Ecuador,Ecuador,Eruption Observed,2008,Basalt / Picro-Basalt, , , , , , , , , ,"47,8",Shield,LATIN AMER. & CARIB,South America,Galapagos Islands,Rift zone / Oceanic crust (< 15 km),"Azul, Cerro",353060,283560,1640,-0.92,-91.408,13547510,1936,220,314,220
Chile,Chile,Eruption Observed,1967,Dacite,Andesite / Basaltic Andesite, , , ,Basalt / Picro-Basalt, , , , ,"21,3",Stratovolcano,LATIN AMER. & CARIB,South America,Central Chile and Argentina,Subduction zone / Continental crust (>25 km),"Azul, Cerro",357060,756950,3788,-35.653,-70.761,16134219,720948,158,3832,9
Japan,Japan,Eruption Observed,1977,Andesite / Basaltic Andesite,Basalt / Picro-Basalt, , , , , , , , ,"337,4",Stratovolcano,ASIA (EX. NEAR EAST),"Japan, Taiwan, Marianas",Honshu,Subduction zone / Continental crust (>25 km),Azumayama,283180,377835,1949,37.735,140.244,127463611,4877648,907,548195,128
Philippines,Philippines,Eruption Observed,1924,Andesite / Basaltic Andesite,Basalt / Picro-Basalt, , , , , , , , ,"298,2",Stratovolcano,ASIA (EX. NEAR EAST),Philippines and SE Asia,North of Luzon,Subduction zone / Crustal thickness unknown,Babuyan Claro,274030,300000,1080,19.523,121.94,89468677,11819,222,222,208
United States,United States,Eruption Dated,-5800,Andesite / Basaltic Andesite,Basalt / Picro-Basalt, , , , , , , , ,"31,0",Stratovolcano,NORTHERN AMERICA,Canada and Western USA,USA (Oregon),Subduction zone / Continental crust (>25 km),Bachelor,322090,9631420,2763,43.979,-121.688,298444215,231420,24,22514,18
Papua New Guinea,Papua New Guinea,Eruption Observed,2020,Andesite / Basaltic Andesite, , , , , , , , , ,"12,3",Others,OCEANIA,Melanesia and Australia,Bougainville and Solomon Islands,Subduction zone / Crustal thickness unknown,Bagana,255020,462840,1855,-6.137,155.196,5670544,115257,404,7861,198
Russia,Russia,Eruption Dated,-550,Andesite / Basaltic Andesite,Dacite,Basalt / Picro-Basalt,Rhyolite, , , , , , ,"8,4",Stratovolcano,C.W. OF IND. STATES,Kamchatka and Mainland Asia,Kamchatka Peninsula,Subduction zone / Continental crust (>25 km),Bakening,300123,17075200,2278,53.905,158.07,142893540,87139,10,1583,0
United States,United States,Eruption Observed,1880,Andesite / Basaltic Andesite,Dacite, , , ,Basalt / Picro-Basalt, , , , ,"31,0",Stratovolcano,NORTHERN AMERICA,Canada and Western USA,USA (Washington),Subduction zone / Continental crust (>25 km),Baker,321010,9631420,3285,48.777,-121.813,298444215,1990504,46,8568,0
Yemen,Yemen,Evidence Credible,Unknown,Basalt / Picro-Basalt, , , , , , , , , ,"40,6",Volcanic field,NEAR EAST,Middle East and Indian Ocean,Middle East (southern),Intraplate / Continental crust (>25 km),"Bal Haf, Harra of",231170,527970,604,14.067,48.3,21456188,177124,5690,6643,5690
Papua New Guinea,Papua New Guinea,Evidence Uncertain,Unknown,Basalt / Picro-Basalt, , , , , , , , , ,"12,3",Stratovolcano,OCEANIA,Melanesia and Australia,Admiralty Islands,Subduction zone / Continental crust (>25 km),Baluan,250020,462840,254,-2.57,147.28,5670544,46898,248,982,242
Philippines,Philippines,Unrest / Holocene,Unknown,Andesite / Basaltic Andesite,Basalt / Picro-Basalt, , , , , , , , ,"298,2",Stratovolcano,ASIA (EX. NEAR EAST),Philippines and SE Asia,Mindanao,Subduction zone / Continental crust (>25 km),Balut,271010,300000,862,5.4,125.375,89468677,1286239,1901,10763,1472
Philippines,Philippines,Evidence Credible,Unknown,Andesite / Basaltic Andesite,Basalt / Picro-Basalt,Dacite, , , , , , , ,"298,2",Complex,ASIA (EX. NEAR EAST),Philippines and SE Asia,Luzon,Subduction zone / Continental crust (>25 km),Banahaw,273050,300000,2158,14.07,121.48,89468677,23837289,93134,1698285,754
Indonesia,Indonesia,Eruption Observed,1988,Dacite,Andesite / Basaltic Andesite,Basalt / Picro-Basalt, , , , , , , ,"127,9",Caldera,ASIA (EX. NEAR EAST),Indonesia,Banda Sea,Subduction zone / Oceanic crust (< 15 km),Banda Api,265090,1919440,596,-4.523,129.881,245452739,5810,5682,5810,5682
Japan,Japan,Eruption Observed,1888,Andesite / Basaltic Andesite, , , , , , , , , ,"337,4",Stratovolcano,ASIA (EX. NEAR EAST),"Japan, Taiwan, Marianas",Honshu,Subduction zone / Continental crust (>25 km),Bandaisan,283160,377835,1816,37.601,140.072,127463611,4709782,17608,327454,5923
Mexico,Mexico,Eruption Observed,1953,Trachyte / Trachydacite,Trachybasalt / Tephrite Basanite,Trachyandesite / Basaltic Trachyandesite,Rhyolite,Basalt / Picro-Basalt, , , , , ,"54,5",Pyroclastic cone,LATIN AMER. & CARIB,México and Central America,Mexico,Rift zone / Oceanic crust (< 15 km),Barcena,341020,1972550,332,19.3,-110.82,107449525,0,0,0,0
Iceland,Iceland,Eruption Observed,2015,Basalt / Picro-Basalt,Rhyolite, , , , , , , , ,"2,9",Stratovolcano,WESTERN EUROPE,Iceland and Arctic Ocean,Iceland (northeastern),Rift zone / Oceanic crust (< 15 km),Bardarbunga,373030,103000,2000,64.633,-17.516,299388,1348,0,0,0
Russia,Russia,Eruption Dated,-3550,Basalt / Picro-Basalt,Andesite / Basaltic Andesite,Dacite,Rhyolite, , , , , , ,"8,4",Lava dome,C.W. OF IND. STATES,Kamchatka and Mainland Asia,Kamchatka Peninsula,Subduction zone / Continental crust (>25 km),Barkhatnaya Sopka,300084,17075200,874,52.802,158.24,142893540,252873,208,13963,0
Kenya,Kenya,Eruption Observed,1921,Trachyte / Trachydacite,Phonolite,Basalt / Picro-Basalt,Trachyandesite / Basaltic Trachyandesite,Trachybasalt / Tephrite Basanite, , , , , ,"59,6",Shield,SUB-SAHARAN AFRICA,Africa and Red Sea,Africa (eastern),Rift zone / Continental crust (>25 km),"Barrier, The",222030,582650,1032,2.32,36.57,34707817,109675,112,4180,17
Costa Rica,Costa Rica,Eruption Dated,-6050,Andesite / Basaltic Andesite,Basalt / Picro-Basalt,Dacite, , , , , , , ,"79,8",Complex,LATIN AMER. & CARIB,México and Central America,Costa Rica,Subduction zone / Continental crust (>25 km),Barva,345050,51100,2906,10.135,-84.1,4075261,3399329,8018,2004665,177
Vietnam,Vietnam,Evidence Uncertain,Unknown,Basalt / Picro-Basalt, , , , , , , , , ,"256,1",Volcanic field,ASIA (EX. NEAR EAST),Philippines and SE Asia,Southeast Asia,Intraplate / Continental crust (>25 km),Bas Dong Nai,275050,329560,392,10.8,107.2,84402966,12300349,991688,991688,991688
Indonesia,Indonesia,Eruption Observed,2000,Andesite / Basaltic Andesite,Dacite,Trachyandesite / Basaltic Trachyandesite,Basalt / Picro-Basalt, , , , , , ,"127,9",Caldera,ASIA (EX. NEAR EAST),Indonesia,Lesser Sunda Islands,Subduction zone / Continental crust (>25 km),Batur,264010,1919440,1717,-8.242,115.375,245452739,4289189,466899,937766,466899
Sudan,Sudan,Eruption Dated,850,Trachybasalt / Tephrite Basanite, , , , , , , , , ,"16,5",Pyroclastic cone,SUB-SAHARAN AFRICA,Africa and Red Sea,Africa (northern),Intraplate / Continental crust (>25 km),Bayuda Volcanic Field,225060,2505810,670,18.33,32.75,41236378,259325,1124,2752,1124
United States,United States,Eruption Dated,480,Andesite / Basaltic Andesite,Basalt / Picro-Basalt, , , , , , , , ,"31,0",Shield,NORTHERN AMERICA,Canada and Western USA,USA (Oregon),Subduction zone / Continental crust (>25 km),Belknap,322060,9631420,2095,44.285,-121.841,298444215,362091,0,6518,0
Russia,Russia,Evidence Uncertain,Unknown,Basalt / Picro-Basalt, , , , , , , , , ,"8,4",Shield,C.W. OF IND. STATES,Kamchatka and Mainland Asia,Kamchatka Peninsula,Subduction zone / Continental crust (>25 km),Bely,300640,17075200,2080,57.88,160.53,142893540,1320,0,20,0
Russia,Russia,Eruption Observed,2020,Andesite / Basaltic Andesite,Dacite, , , , , , , , ,"8,4",Stratovolcano,C.W. OF IND. STATES,Kamchatka and Mainland Asia,Kamchatka Peninsula,Subduction zone / Continental crust (>25 km),Bezymianny,300250,17075200,2882,55.972,160.595,142893540,11728,0,47,0
Indonesia,Indonesia,Evidence Credible,Unknown,Andesite / Basaltic Andesite, , , , , , , , , ,"127,9",Stratovolcano,ASIA (EX. NEAR EAST),Indonesia,Halmahera,Subduction zone / Oceanic crust (< 15 km),Bibinoi,268073,1919440,932,-0.761,127.725,245452739,83771,4276,15604,53
Philippines,Philippines,Eruption Observed,1939,Andesite / Basaltic Andesite,Basalt / Picro-Basalt, , , , , , , , ,"298,2",Others,ASIA (EX. NEAR EAST),Philippines and SE Asia,Central Philippines,Subduction zone / Continental crust (>25 km),Biliran,272080,300000,1301,11.523,124.535,89468677,3177850,78799,254519,4612
Papua New Guinea,Papua New Guinea,Eruption Dated,1580,Andesite / Basaltic Andesite,Dacite, , , , , , , , ,"12,3",Others,OCEANIA,Melanesia and Australia,Bougainville and Solomon Islands,Subduction zone / Crustal thickness unknown,Billy Mitchell,255011,462840,1544,-6.092,155.225,5670544,119191,449,9620,113
Saudi Arabia,Saudi Arabia,Evidence Credible,Unknown,Basalt / Picro-Basalt,Trachybasalt / Tephrite Basanite, , , , , , , , ,"13,8",Volcanic field,NEAR EAST,Middle East and Indian Ocean,Middle East (southern),Intraplate / Continental crust (>25 km),"Birk, Harrat al",231072,1960582,587,18.37,41.63,27019731,596401,37855,37855,37855
Ethiopia,Ethiopia,Evidence Credible,Unknown,Basalt / Picro-Basalt,Rhyolite, , , , , , , , ,"66,3",Others,SUB-SAHARAN AFRICA,Africa and Red Sea,Africa (northeastern) and Red Sea,Rift zone / Continental crust (>25 km),Bishoftu Volcanic Field,221220,1127127,1850,8.78,38.98,74777981,7986826,310101,662037,310101
United States,United States,Eruption Dated,-8400,Basalt / Picro-Basalt, , , , , , , , , ,"31,0",Shield,NORTHERN AMERICA,Canada and Western USA,USA (Idaho),Rift zone / Continental crust (>25 km),Black Butte Crater Lava Field,324010,9631420,1478,43.183,-114.352,298444215,171376,158,4440,119
United States,United States,Eruption Dated,1290,Basalt / Picro-Basalt,Andesite / Basaltic Andesite, , , ,Rhyolite, , , , ,"31,0",Volcanic field,NORTHERN AMERICA,Canada and Western USA,USA (Utah),Rift zone / Continental crust (>25 km),Black Rock Desert,327050,9631420,1800,38.97,-112.5,298444215,54291,3292,3679,3292
Argentina,Argentina,Evidence Credible,Unknown,Basalt / Picro-Basalt,Trachyandesite / Basaltic Trachyandesite, , , , , , , , ,"14,4",Volcanic field,LATIN AMER. & CARIB,South America,Central Chile and Argentina,Intraplate / Continental crust (>25 km),"Blanca, Laguna",357102,2766890,1700,-39.02,-70.37,39921833,0,0,0,0
Argentina,Argentina,Eruption Dated,-2300,Rhyolite, , , , , , , , , ,"14,4",Caldera,LATIN AMER. & CARIB,South America,"Northern Chile, Bolivia and Argentina",Subduction zone / Continental crust (>25 km),"Blanco, Cerro",355210,2766890,4670,-26.789,-67.765,39921833,14279,39,65,39
United States,United States,Eruption Observed,2017,Trachyandesite / Basaltic Trachyandesite,Basalt / Picro-Basalt,Andesite / Basaltic Andesite, , , , , , , ,"31,0",Others,NORTHERN AMERICA,Alaska,Aleutian Islands,Subduction zone / Intermediate crust (15-25 km),Bogoslof,311300,9631420,150,53.93,-168.03,298444215,4216,0,0,0
Russia,Russia,Evidence Credible,Unknown,Basalt / Picro-Basalt,Andesite / Basaltic Andesite,Rhyolite,Dacite, , , , , , ,"8,4",Lava dome,C.W. OF IND. STATES,Kamchatka and Mainland Asia,Kamchatka Peninsula,Subduction zone / Continental crust (>25 km),Bolshe-Bannaya,300087,17075200,1200,52.9,157.78,142893540,271762,27,1061,0
Russia,Russia,Evidence Uncertain,Unknown,Andesite / Basaltic Andesite,Basalt / Picro-Basalt, , , , , , , , ,"8,4",Shield,C.W. OF IND. STATES,Kamchatka and Mainland Asia,Kamchatka Peninsula,Subduction zone / Continental crust (>25 km),Bolshoi Payalpan,300300,17075200,1906,55.88,157.78,142893540,2653,0,26,0
Russia,Russia,Eruption Dated,-4450,Basalt / Picro-Basalt,Andesite / Basaltic Andesite,Dacite,Rhyolite, , , , , , ,"8,4",Stratovolcano,C.W. OF IND. STATES,Kamchatka and Mainland Asia,Kamchatka Peninsula,Subduction zone / Continental crust (>25 km),Bolshoi Semiachik,300150,17075200,1720,54.32,160.02,142893540,7373,0,554,0
Russia,Russia,Eruption Dated,-5310,Basalt / Picro-Basalt,Andesite / Basaltic Andesite,Dacite, , , , , , , ,"8,4",Shield,C.W. OF IND. STATES,Kamchatka and Mainland Asia,Kamchatka Peninsula,Subduction zone / Continental crust (>25 km),Bolshoi-Kekuknaysky,300360,17075200,1401,56.483,157.917,142893540,2779,0,158,0
Ethiopia,Ethiopia,Evidence Credible,Unknown,Rhyolite, , , , , , , , , ,"66,3",Pyroclastic cone,SUB-SAHARAN AFRICA,Africa and Red Sea,Africa (northeastern) and Red Sea,Rift zone / Continental crust (>25 km),Bora-Bericcio,221240,1127127,2267,8.221,39.05,74777981,8356559,44666,433373,5822
Ethiopia,Ethiopia,Evidence Credible,Unknown,Basalt / Picro-Basalt,Trachyte / Trachydacite,Rhyolite, , , , , , , ,"66,3",Stratovolcano,SUB-SAHARAN AFRICA,Africa and Red Sea,Africa (northeastern) and Red Sea,Rift zone / Intermediate crust (15-25 km),Borawli,221107,1127127,784,13.304,40.987,74777981,111101,100,3699,38
Ethiopia,Ethiopia,Evidence Credible,Unknown,Rhyolite,Trachyte / Trachydacite,Basalt / Picro-Basalt,Trachybasalt / Tephrite Basanite,Trachyandesite / Basaltic Trachyandesite, , , , , ,"66,3",Stratovolcano,SUB-SAHARAN AFRICA,Africa and Red Sea,Africa (northeastern) and Red Sea,Rift zone / Continental crust (>25 km),Boset-Bericha,221210,1127127,2447,8.558,39.475,74777981,7130451,19603,586318,3267
Norway,Norway,Eruption Dated,-50,Basalt / Picro-Basalt,Trachyte / Trachydacite,Rhyolite,Trachyandesite / Basaltic Trachyandesite, ,Trachybasalt / Tephrite Basanite, , , , ,"14,2",Shield,WESTERN EUROPE,Atlantic Ocean,Atlantic Ocean (southern),Rift zone / Oceanic crust (< 15 km),Bouvet,386020,323802,741,-54.408,3.351,4610820,0,0,0,0
Colombia,Colombia,Eruption Dated,1720,Dacite,Andesite / Basaltic Andesite,Trachyandesite / Basaltic Trachyandesite, , , , , , , ,"38,3",Stratovolcano,LATIN AMER. & CARIB,South America,Colombia,Subduction zone / Continental crust (>25 km),"Bravo, Cerro",351012,1138910,3985,5.091,-75.293,43593035,3929468,4916,538690,1679
Iceland,Iceland,Eruption Observed,1341,Basalt / Picro-Basalt, , , , , , , , , ,"2,9",Others,WESTERN EUROPE,Iceland and Arctic Ocean,Iceland (southwestern),Rift zone / Oceanic crust (< 15 km),Brennisteinsfjoll,371040,103000,610,63.933,-21.783,299388,203012,33526,163469,33526
Canada,Canada,Evidence Credible,Unknown,Basalt / Picro-Basalt,Trachybasalt / Tephrite Basanite, , , , , , , , ,"3,3",Volcanic field,NORTHERN AMERICA,Canada and Western USA,Canada,Subduction zone / Continental crust (>25 km),Bridge River Cones,320170,9984670,2500,50.8,-123.4,33098932,15871,55,219,55
United Kingdom,United Kingdom,Eruption Observed,2016,Basalt / Picro-Basalt,Andesite / Basaltic Andesite, , , , , , , , ,"247,6",Stratovolcano,WESTERN EUROPE,Antarctica,Antarctica and South Sandwich Islands,Subduction zone / Oceanic crust (< 15 km),Bristol Island,390080,244820,1100,-59.017,-26.533,60609153,0,0,0,0
United States,United States,Evidence Uncertain,Unknown,Basalt / Picro-Basalt,Andesite / Basaltic Andesite, , , , , , , , ,"31,0",Stratovolcano,NORTHERN AMERICA,Alaska,Aleutian Islands,Subduction zone / Intermediate crust (15-25 km),Buldir,311010,9631420,656,52.35,175.911,298444215,0,0,0,0
Philippines,Philippines,Eruption Observed,2017,Andesite / Basaltic Andesite,Dacite, , , ,Basalt / Picro-Basalt,Rhyolite, , , ,"298,2",Stratovolcano,ASIA (EX. NEAR EAST),Philippines and SE Asia,Luzon,Subduction zone / Continental crust (>25 km),Bulusan,273010,300000,1535,12.769,124.056,89468677,3360418,74286,518705,2789
Uganda,Uganda,Evidence Credible,Unknown,Foidite, , , , , , , , , ,"119,5",Others,SUB-SAHARAN AFRICA,Africa and Red Sea,Africa (central),Rift zone / Continental crust (>25 km),Bunyaruguru,223004,236040,1554,-0.2,30.08,28195754,5955535,177517,338735,177517
Ethiopia,Ethiopia,Evidence Credible,Unknown,Basalt / Picro-Basalt, , , , , , , , , ,"66,3",Others,SUB-SAHARAN AFRICA,Africa and Red Sea,Africa (northeastern) and Red Sea,Rift zone / Continental crust (>25 km),Butajiri-Silti Field,221260,1127127,2281,8.05,38.35,74777981,7096283,431631,889323,431631
Indonesia,Indonesia,Evidence Credible,Unknown,Andesite / Basaltic Andesite,Basalt / Picro-Basalt, , , , , , , , ,"127,9",Caldera,ASIA (EX. NEAR EAST),Indonesia,Lesser Sunda Islands,Subduction zone / Continental crust (>25 km),Buyan-Bratan,264001,1919440,2244,-8.283,115.133,245452739,4355947,333333,935879,333333
Philippines,Philippines,Eruption Dated,1820,Andesite / Basaltic Andesite, , , , , , , , , ,"298,2",Stratovolcano,ASIA (EX. NEAR EAST),Philippines and SE Asia,Central Philippines,Subduction zone / Continental crust (>25 km),Cabalían,272050,300000,912,10.285,125.218,89468677,2091362,88767,277950,26511
Chile,Chile,Eruption Dated,-5050,Basalt / Picro-Basalt, , , , , , , , , ,"21,3",Pyroclastic cone,LATIN AMER. & CARIB,South America,Central Chile and Argentina,Subduction zone / Continental crust (>25 km),Caburgua-Huelemolle,357112,756950,1652,-39.25,-71.75,16134219,521553,5951,17774,5951
Philippines,Philippines,Eruption Observed,1860,Andesite / Basaltic Andesite,Basalt / Picro-Basalt, , , , , , , , ,"298,2",Stratovolcano,ASIA (EX. NEAR EAST),Philippines and SE Asia,Luzon,Subduction zone / Continental crust (>25 km),Cagua,273090,300000,1133,18.222,122.123,89468677,1480952,1137,34018,99
Chile,Chile,Evidence Credible,Unknown,Dacite,Andesite / Basaltic Andesite, , , , , , , , ,"21,3",Caldera,LATIN AMER. & CARIB,South America,Central Chile and Argentina,Subduction zone / Continental crust (>25 km),Calabozos,357042,756950,3508,-35.558,-70.496,16134219,305637,550,1023,550
Spain,Spain,Eruption Dated,-3600,Basalt / Picro-Basalt,Foidite,Trachybasalt / Tephrite Basanite, , , , , , , ,"80,0",Pyroclastic cone,WESTERN EUROPE,Mediterranean and Western Asia,Western Europe,Intraplate / Continental crust (>25 km),Calatrava Volcanic Field,210040,504782,1117,38.87,-4.02,40397842,774386,197199,197199,197199
Chile,Chile,Eruption Observed,2015,Andesite / Basaltic Andesite, , , , , , , , , ,"21,3",Stratovolcano,LATIN AMER. & CARIB,South America,Southern Chile and Argentina,Subduction zone / Continental crust (>25 km),Calbuco,358020,756950,1974,-41.33,-72.618,16134219,575233,871,32265,70
Chile,Chile,Eruption Observed,1980,Andesite / Basaltic Andesite,Basalt / Picro-Basalt, , , ,Dacite, , , , ,"21,3",Stratovolcano,LATIN AMER. & CARIB,South America,Central Chile and Argentina,Subduction zone / Continental crust (>25 km),Callaqui,357091,756950,3164,-37.92,-71.45,16134219,400426,294,4354,56
Cameroon,Cameroon,Eruption Observed,2000,Trachybasalt / Tephrite Basanite,Basalt / Picro-Basalt,Trachyandesite / Basaltic Trachyandesite, , ,Trachyte / Trachydacite,Foidite, , , ,"36,5",Stratovolcano,SUB-SAHARAN AFRICA,Africa and Red Sea,Africa (western),Intraplate / Continental crust (>25 km),Cameroon,224010,475440,4095,4.203,9.17,17340702,3079036,26053,417460,328
Philippines,Philippines,Eruption Observed,1953,Andesite / Basaltic Andesite,Dacite, , , ,Basalt / Picro-Basalt,Rhyolite, , , ,"298,2",Stratovolcano,ASIA (EX. NEAR EAST),Philippines and SE Asia,Mindanao,Subduction zone / Continental crust (>25 km),Camiguin,271080,300000,1552,9.203,124.673,89468677,2871353,51587,92178,12173
Philippines,Philippines,Eruption Observed,1857,Andesite / Basaltic Andesite, , , , , , , , , ,"298,2",Stratovolcano,ASIA (EX. NEAR EAST),Philippines and SE Asia,North of Luzon,Subduction zone / Crustal thickness unknown,Camiguin de Babuyanes,274010,300000,712,18.83,121.86,89468677,409653,1066,1369,876
Italy,Italy,Eruption Observed,1538,Trachyte / Trachydacite,Phonolite,Trachyandesite / Basaltic Trachyandesite, , ,Trachybasalt / Tephrite Basanite,Phono-tephrite /  Tephri-phonolite, , , ,"193,0",Caldera,WESTERN EUROPE,Mediterranean and Western Asia,Italy,Subduction zone / Continental crust (>25 km),Campi Flegrei,211010,301230,458,40.827,14.139,58133509,6019697,2234109,3006865,2234109
Italy,Italy,Eruption Observed,1867,Trachybasalt / Tephrite Basanite,Basalt / Picro-Basalt, , , , , , , , ,"193,0",Others,WESTERN EUROPE,Mediterranean and Western Asia,Italy,Rift zone / Continental crust (>25 km),Campi Flegrei del Mar di Sicilia,211070,301230,-8,37.1,12.7,58133509,633350,230578,230578,230578
United Kingdom,United Kingdom,Eruption Observed,1911,Basalt / Picro-Basalt,Andesite / Basaltic Andesite,Dacite, , , , , , , ,"247,6",Stratovolcano,WESTERN EUROPE,Antarctica,Antarctica and South Sandwich Islands,Subduction zone / Oceanic crust (< 15 km),Candlemas Island,390100,244820,550,-57.08,-26.67,60609153,0,0,0,0
Chile,Chile,Eruption Observed,1979,Basalt / Picro-Basalt,Andesite / Basaltic Andesite, , , , , , , , ,"21,3",Pyroclastic cone,LATIN AMER. & CARIB,South America,Central Chile and Argentina,Subduction zone / Continental crust (>25 km),Carran-Los Venados,357140,756950,1114,-40.35,-72.07,16134219,452820,4840,9001,4840
United States,United States,Eruption Dated,-3250,Basalt / Picro-Basalt, , , , , , , , , ,"31,0",Pyroclastic cone,NORTHERN AMERICA,Canada and Western USA,USA (New Mexico),Rift zone / Continental crust (>25 km),Carrizozo,327110,9631420,1731,33.78,-105.93,298444215,89711,11,2596,2
Ecuador,Ecuador,Eruption Observed,1786,Andesite / Basaltic Andesite,Dacite, , , ,Rhyolite, , , , ,"47,8",Others,LATIN AMER. & CARIB,South America,Ecuador,Subduction zone / Continental crust (>25 km),Cayambe,352006,283560,5790,0.029,-77.986,13547510,3154986,1148,109630,70
Canada,Canada,Evidence Credible,Unknown,Andesite / Basaltic Andesite,Dacite, , , , , , , , ,"3,3",Volcanic field,NORTHERN AMERICA,Canada and Western USA,Canada,Subduction zone / Continental crust (>25 km),Cayley Volcanic Field,320811,9984670,2375,50.12,-123.28,33098932,0,0,0,0
Chile,Chile,Eruption Dated,-190,Basalt / Picro-Basalt, , , , , , , , , ,"21,3",Pyroclastic cone,LATIN AMER. & CARIB,South America,Southern Chile and Argentina,Subduction zone / Continental crust (>25 km),Cayutue-La Vigueria,358012,756950,506,-41.25,-72.27,16134219,451311,1737,5482,1737
Mexico,Mexico,Eruption Observed,1875,Andesite / Basaltic Andesite,Dacite, , , ,Rhyolite,Trachyandesite / Basaltic Trachyandesite,Trachyte / Trachydacite, , ,"54,5",Stratovolcano,LATIN AMER. & CARIB,México and Central America,Mexico,Subduction zone / Continental crust (>25 km),Ceboruco,341030,1972550,2280,21.125,-104.508,107449525,1282014,30319,93057,616
Kenya,Kenya,Evidence Credible,Unknown,Basalt / Picro-Basalt,Trachyandesite / Basaltic Trachyandesite,Trachyte / Trachydacite, , , , , , , ,"59,6",Others,SUB-SAHARAN AFRICA,Africa and Red Sea,Africa (eastern),Rift zone / Continental crust (>25 km),Central Island,222010,582650,518,3.496,36.04,34707817,216485,28,10253,28
Indonesia,Indonesia,Eruption Observed,1951,Andesite / Basaltic Andesite, , , , , , , , , ,"127,9",Stratovolcano,ASIA (EX. NEAR EAST),Indonesia,Java,Subduction zone / Continental crust (>25 km),Cereme,263170,1919440,3039,-6.895,108.408,245452739,25718820,67377,3058015,915
Ecuador,Ecuador,Eruption Observed,1773,Rhyolite,Dacite,Andesite / Basaltic Andesite, , , , , , , ,"47,8",Caldera,LATIN AMER. & CARIB,South America,Ecuador,Subduction zone / Continental crust (>25 km),Chacana,352022,283560,4643,-0.375,-78.25,13547510,3292546,81716,348743,81716
Peru,Peru,Evidence Uncertain,Unknown,Andesite / Basaltic Andesite,Dacite,Rhyolite, , , , , , , ,"22,0",Stratovolcano,LATIN AMER. & CARIB,South America,Peru,Subduction zone / Continental crust (>25 km),"Chachani, Nevado",354007,1285220,6057,-16.191,-71.53,28302603,1032411,1182,887176,97
Ecuador,Ecuador,Eruption Dated,-3740,Dacite,Andesite / Basaltic Andesite, , , , , , , , ,"47,8",Stratovolcano,LATIN AMER. & CARIB,South America,Ecuador,Subduction zone / Continental crust (>25 km),Chachimbiro,352002,283560,4106,0.468,-78.287,13547510,3253458,5299,356162,125
France,France,Eruption Dated,-4040,Basalt / Picro-Basalt,Trachybasalt / Tephrite Basanite, , , ,Trachyandesite / Basaltic Trachyandesite,Trachyte / Trachydacite, , , ,"111,3",Lava dome,WESTERN EUROPE,Mediterranean and Western Asia,Western Europe,Rift zone / Continental crust (>25 km),Chaine des Puys,210020,547030,1464,45.775,2.97,60876136,1577243,323392,427221,323392
Russia,Russia,Eruption Dated,-4550,Andesite / Basaltic Andesite, , , , , , , , , ,"8,4",Pyroclastic cone,C.W. OF IND. STATES,Kamchatka and Mainland Asia,Kamchatka Peninsula,Subduction zone / Continental crust (>25 km),Cherpuk Group,300273,17075200,1868,55.55,157.47,142893540,3323,0,32,0
Mexico,Mexico,Eruption Dated,400,Andesite / Basaltic Andesite,Trachyandesite / Basaltic Trachyandesite,Dacite,Basalt / Picro-Basalt, ,Trachybasalt / Tephrite Basanite, , , , ,"54,5",Volcanic field,LATIN AMER. & CARIB,México and Central America,Mexico,Subduction zone / Continental crust (>25 km),Chichinautzin,341080,1972550,3930,19.08,-99.13,107449525,28030794,584725,4061942,584725
Mexico,Mexico,Eruption Observed,1982,Trachyandesite / Basaltic Trachyandesite, , , , ,Trachybasalt / Tephrite Basanite,Andesite / Basaltic Andesite, , , ,"54,5",Lava dome,LATIN AMER. & CARIB,México and Central America,Mexico,Subduction zone / Continental crust (>25 km),"Chichon, El",341120,1972550,1150,17.36,-93.228,107449525,3570632,11000,143015,3759
United States,United States,Eruption Observed,1998,Andesite / Basaltic Andesite,Dacite, , , ,Basalt / Picro-Basalt, , , , ,"31,0",Stratovolcano,NORTHERN AMERICA,Alaska,Alaska Peninsula,Subduction zone / Continental crust (>25 km),Chiginagak,312110,9631420,2221,57.135,-156.99,298444215,52,0,0,0
Russia,Russia,Eruption Observed,2016,Basalt / Picro-Basalt,Andesite / Basaltic Andesite, , , , , , , , ,"8,4",Stratovolcano,C.W. OF IND. STATES,Kuril Islands,Kuril Islands,Subduction zone / Continental crust (>25 km),Chikurachki,290360,17075200,1781,50.324,155.461,142893540,2492,65,527,0
Chile,Chile,Eruption Observed,2020,Andesite / Basaltic Andesite,Dacite,Rhyolite, , , , , , , ,"21,3",Stratovolcano,LATIN AMER. & CARIB,South America,Central Chile and Argentina,Subduction zone / Continental crust (>25 km),"Chillan, Nevados de",357070,756950,3180,-36.868,-71.378,16134219,512325,371,3733,68
El Salvador,El Salvador,Evidence Credible,Unknown,Andesite / Basaltic Andesite, , , , , , , , , ,"324,3",Stratovolcano,LATIN AMER. & CARIB,México and Central America,El Salvador and Honduras,Subduction zone / Continental crust (>25 km),Chinameca,343090,21040,1300,13.478,-88.33,6822378,4897760,89206,824983,14998
Guatemala,Guatemala,Evidence Credible,Unknown,Basalt / Picro-Basalt,Andesite / Basaltic Andesite, , , , , , , , ,"112,9",Pyroclastic cone,LATIN AMER. & CARIB,México and Central America,Guatemala,Subduction zone / Continental crust (>25 km),Chiquimula Volcanic Field,342200,108890,1192,14.83,-89.55,12293545,3740914,240892,412617,240892
Russia,Russia,Eruption Observed,2016,Andesite / Basaltic Andesite,Basalt / Picro-Basalt,Dacite, , , , , , , ,"8,4",Caldera,C.W. OF IND. STATES,Kuril Islands,Kuril Islands,Subduction zone / Oceanic crust (< 15 km),Chirpoi,290150,17075200,742,46.532,150.871,142893540,491,1,3,1
Japan,Japan,Eruption Observed,1974,Andesite / Basaltic Andesite,Basalt / Picro-Basalt, , , , , , , , ,"337,4",Stratovolcano,ASIA (EX. NEAR EAST),"Japan, Taiwan, Marianas",Honshu,Subduction zone / Continental crust (>25 km),Chokaisan,283220,377835,2236,39.099,140.049,127463611,2301576,707,185681,131
Kenya,Kenya,Eruption Dated,1855,Trachybasalt / Tephrite Basanite,Basalt / Picro-Basalt,Foidite, , , , , , , ,"59,6",Volcanic field,SUB-SAHARAN AFRICA,Africa and Red Sea,Africa (eastern),Rift zone / Continental crust (>25 km),Chyulu Hills,222130,582650,2188,-2.68,37.88,34707817,1784980,14889,91280,14889
United States,United States,Evidence Uncertain,Unknown,Basalt / Picro-Basalt, , , , , , , , , ,"31,0",Pyroclastic cone,NORTHERN AMERICA,Canada and Western USA,USA (Oregon),Subduction zone / Continental crust (>25 km),Cinnamon Butte,322150,9631420,1956,43.241,-122.108,298444215,69577,113,913,113
United States,United States,Evidence Credible,Unknown,Dacite,Andesite / Basaltic Andesite,Rhyolite,Basalt / Picro-Basalt, , , , , , ,"31,0",Volcanic field,NORTHERN AMERICA,Canada and Western USA,USA (California),Subduction zone / Continental crust (>25 km),Clear Lake,323100,9631420,1439,38.97,-122.77,298444215,1059280,52801,71791,52801
El Salvador,El Salvador,Evidence Credible,Unknown,Rhyolite,Dacite,Andesite / Basaltic Andesite, , ,Trachyandesite / Basaltic Trachyandesite,Basalt / Picro-Basalt, , , ,"324,3",Caldera,LATIN AMER. & CARIB,México and Central America,El Salvador and Honduras,Subduction zone / Continental crust (>25 km),Coatepeque Caldera,343041,21040,746,13.87,-89.55,6822378,6486011,616730,1210307,616730
France,France,Evidence Credible,Unknown,Basalt / Picro-Basalt, , , , , , , , , ,"111,3",Stratovolcano,WESTERN EUROPE,Middle East and Indian Ocean,Indian Ocean (southern),Rift zone / Oceanic crust (< 15 km),"Cochons, Ile aux",234050,547030,775,-46.1,50.23,60876136,0,0,0,0
Mexico,Mexico,Eruption Dated,1150,Andesite / Basaltic Andesite,Dacite, , , ,Basalt / Picro-Basalt,Trachybasalt / Tephrite Basanite,Trachyandesite / Basaltic Trachyandesite, , ,"54,5",Shield,LATIN AMER. & CARIB,México and Central America,Mexico,Subduction zone / Continental crust (>25 km),Cofre de Perote,341096,1972550,4282,19.492,-97.15,107449525,4907992,18638,885440,658
Mexico,Mexico,Eruption Observed,2019,Andesite / Basaltic Andesite, , , , ,Dacite,Trachybasalt / Tephrite Basanite,Trachyandesite / Basaltic Trachyandesite,Basalt / Picro-Basalt, ,"54,5",Stratovolcano,LATIN AMER. & CARIB,México and Central America,Mexico,Subduction zone / Continental crust (>25 km),Colima,341040,1972550,3850,19.514,-103.62,107449525,1494790,746,303490,76
Italy,Italy,Evidence Uncertain,Unknown,Foidite,Phono-tephrite /  Tephri-phonolite, , , ,Trachybasalt / Tephrite Basanite, , , , ,"193,0",Caldera,WESTERN EUROPE,Mediterranean and Western Asia,Italy,Subduction zone / Continental crust (>25 km),Colli Albani,211004,301230,949,41.73,12.7,58133509,5330273,897039,2962194,897039
Mexico,Mexico,Evidence Uncertain,Unknown,Trachyandesite / Basaltic Trachyandesite,Andesite / Basaltic Andesite,Basalt / Picro-Basalt, , , , , , , ,"54,5",Volcanic field,LATIN AMER. & CARIB,México and Central America,Mexico,Rift zone / Continental crust (>25 km),Comondu-La Purisima,341012,1972550,780,26,-111.92,107449525,43271,1033,2365,1033
Nicaragua,Nicaragua,Eruption Observed,2011,Andesite / Basaltic Andesite,Basalt / Picro-Basalt, , , ,Dacite, , , , ,"43,0",Stratovolcano,LATIN AMER. & CARIB,México and Central America,Nicaragua,Subduction zone / Continental crust (>25 km),Concepcion,344120,129494,1700,11.538,-85.622,5570129,2266903,28900,92378,14072
Ethiopia,Ethiopia,Evidence Credible,Unknown,Rhyolite,Basalt / Picro-Basalt, , , , , , , , ,"66,3",Caldera,SUB-SAHARAN AFRICA,Africa and Red Sea,Africa (northeastern) and Red Sea,Rift zone / Continental crust (>25 km),Corbetti Caldera,221290,1127127,2320,7.193,38.39,74777981,9794061,565206,1171948,565206
Chile,Chile,Evidence Credible,Unknown,Andesite / Basaltic Andesite,Dacite, , , , , , , , ,"21,3",Stratovolcano,LATIN AMER. & CARIB,South America,"Northern Chile, Bolivia and Argentina",Subduction zone / Continental crust (>25 km),Cordon de Puntas Negras,355101,756950,5852,-23.743,-67.534,16134219,5798,0,217,0
Portugal,Portugal,Evidence Credible,Unknown,Basalt / Picro-Basalt,Andesite / Basaltic Andesite, , , , , , , , ,"114,8",Stratovolcano,WESTERN EUROPE,Atlantic Ocean,Azores,Intraplate / Oceanic crust (< 15 km),Corvo,382002,92391,718,39.699,-31.111,10605870,5340,516,1517,516
Nicaragua,Nicaragua,Eruption Observed,1859,Andesite / Basaltic Andesite,Basalt / Picro-Basalt, , , , , , , , ,"43,0",Stratovolcano,LATIN AMER. & CARIB,México and Central America,Nicaragua,Subduction zone / Continental crust (>25 km),Cosiguina,344010,129494,872,12.98,-87.57,5570129,2179830,4114,18876,143
Ecuador,Ecuador,Eruption Observed,2016,Andesite / Basaltic Andesite,Dacite,Rhyolite, , , , , , , ,"47,8",Stratovolcano,LATIN AMER. & CARIB,South America,Ecuador,Subduction zone / Continental crust (>25 km),Cotopaxi,352050,283560,5911,-0.677,-78.436,13547510,3631492,7299,152139,251
Argentina,Argentina,Evidence Credible,Unknown,Trachybasalt / Tephrite Basanite, , , , ,Basalt / Picro-Basalt, , , , ,"14,4",Pyroclastic cone,LATIN AMER. & CARIB,South America,Southern Chile and Argentina,Intraplate / Continental crust (>25 km),Crater Basalt Volcanic Field,358025,2766890,1344,-42.018,-70.194,39921833,20539,448,1140,448
United States,United States,Eruption Dated,-2850,Dacite,Andesite / Basaltic Andesite, , , ,Basalt / Picro-Basalt, , , , ,"31,0",Caldera,NORTHERN AMERICA,Canada and Western USA,USA (Oregon),Subduction zone / Continental crust (>25 km),Crater Lake,322160,9631420,2487,42.93,-122.12,298444215,272674,52,366,52
United States,United States,Eruption Dated,-130,Basalt / Picro-Basalt,Trachybasalt / Tephrite Basanite,Trachyandesite / Basaltic Trachyandesite, , , , , , , ,"31,0",Pyroclastic cone,NORTHERN AMERICA,Canada and Western USA,USA (Idaho),Rift zone / Continental crust (>25 km),Craters of the Moon,324020,9631420,2005,43.42,-113.5,298444215,93300,15,1459,15
Philippines,Philippines,Unrest / Holocene,Unknown,Andesite / Basaltic Andesite,Dacite,Basalt / Picro-Basalt, , , , , , , ,"298,2",Complex,ASIA (EX. NEAR EAST),Philippines and SE Asia,Central Philippines,Subduction zone / Continental crust (>25 km),Cuernos de Negros,272010,300000,1862,9.25,123.17,89468677,2960980,39681,531644,1458
Ecuador,Ecuador,Eruption Dated,650,Dacite, , , , , , , , , ,"47,8",Caldera,LATIN AMER. & CARIB,South America,Ecuador,Subduction zone / Continental crust (>25 km),Cuicocha,352003,283560,3246,0.308,-78.364,13547510,3193683,178815,364146,178815
Guatemala,Guatemala,Evidence Credible,Unknown,Basalt / Picro-Basalt,Andesite / Basaltic Andesite, , , , , , , , ,"112,9",Volcanic field,LATIN AMER. & CARIB,México and Central America,Guatemala,Subduction zone / Continental crust (>25 km),Cuilapa-Barbarena,342111,108890,1454,14.33,-90.4,12293545,6943297,119602,987252,119602
Colombia,Colombia,Eruption Observed,1926,Andesite / Basaltic Andesite,Dacite, , , , , , , , ,"38,3",Stratovolcano,LATIN AMER. & CARIB,South America,Colombia,Subduction zone / Continental crust (>25 km),Cumbal,351100,1138910,4764,0.95,-77.87,43593035,1800919,10206,244853,1405
Mexico,Mexico,Eruption Dated,-3920,Andesite / Basaltic Andesite,Dacite,Rhyolite, , , , , , , ,"54,5",Stratovolcano,LATIN AMER. & CARIB,México and Central America,Mexico,Subduction zone / Continental crust (>25 km),"Cumbres,  Las",341098,1972550,3940,19.15,-97.27,107449525,6365085,1923,315004,113
Ethiopia,Ethiopia,Eruption Observed,2005,Basalt / Picro-Basalt,Rhyolite,Trachyandesite / Basaltic Trachyandesite,Trachybasalt / Tephrite Basanite,Trachyte / Trachydacite, , , , , ,"66,3",Stratovolcano,SUB-SAHARAN AFRICA,Africa and Red Sea,Africa (northeastern) and Red Sea,Rift zone / Intermediate crust (15-25 km),Dabbahu,221113,1127127,1401,12.595,40.48,74777981,540735,1150,36494,204
Ethiopia,Ethiopia,Evidence Credible,Unknown,Basalt / Picro-Basalt,Rhyolite, , , , , , , , ,"66,3",Shield,SUB-SAHARAN AFRICA,Africa and Red Sea,Africa (northeastern) and Red Sea,Rift zone / Intermediate crust (15-25 km),Dabbayra,221114,1127127,1302,12.38,40.07,74777981,1946949,3324,47053,804
Papua New Guinea,Papua New Guinea,Eruption Dated,1895,Andesite / Basaltic Andesite,Dacite,Basalt / Picro-Basalt, , , , , , , ,"12,3",Caldera,OCEANIA,Melanesia and Australia,New Britain,Subduction zone / Continental crust (>25 km),Dakataua,252040,462840,408,-5.094,150.094,5670544,113954,1147,3743,1147
Ethiopia,Ethiopia,Eruption Observed,1631,Basalt / Picro-Basalt,Trachyte / Trachydacite,Rhyolite, , , , , , , ,"66,3",Shield,SUB-SAHARAN AFRICA,Africa and Red Sea,Africa (northeastern) and Red Sea,Rift zone / Intermediate crust (15-25 km),Dama Ali,221141,1127127,1068,11.28,41.63,74777981,353949,1944,40013,24
Iran,Iran,Eruption Dated,-5350,Trachyandesite / Basaltic Trachyandesite, , , , ,Basalt / Picro-Basalt,Trachyte / Trachydacite, , , ,"41,7",Stratovolcano,ASIA (EX. NEAR EAST),Middle East and Indian Ocean,Middle East (western),Intraplate / Continental crust (>25 km),Damavand,232010,1648000,5670,35.951,52.109,68688433,11945981,2295,59171,27
Mongolia,Mongolia,Evidence Credible,Unknown,Basalt / Picro-Basalt,Trachybasalt / Tephrite Basanite,Foidite, , , , , , , ,"1,8",Pyroclastic cone,ASIA (EX. NEAR EAST),Kamchatka and Mainland Asia,Mongolia,Intraplate / Continental crust (>25 km),Dariganga Volcanic Field,303040,1564116,1778,45.754,114.279,2832224,25280,18247,18247,18247
Ecuador,Ecuador,Eruption Dated,1813,Basalt / Picro-Basalt, , , , ,Andesite / Basaltic Andesite, , , , ,"47,8",Shield,LATIN AMER. & CARIB,South America,Galapagos Islands,Rift zone / Oceanic crust (< 15 km),Darwin,353030,283560,1330,-0.18,-91.28,13547510,2366,190,343,190
Indonesia,Indonesia,Unrest / Holocene,Unknown,Basalt / Picro-Basalt,Andesite / Basaltic Andesite, , , , , , , , ,"127,9",Stratovolcano,ASIA (EX. NEAR EAST),Indonesia,Sumatra,Subduction zone / Continental crust (>25 km),"Daun, Bukit",261210,1919440,2467,-3.38,102.37,245452739,2318233,42410,425096,4088
United States,United States,Eruption Dated,-2790,Andesite / Basaltic Andesite, , , , , , , , , ,"31,0",Volcanic field,NORTHERN AMERICA,Canada and Western USA,USA (Oregon),Subduction zone / Continental crust (>25 km),Davis Lake,322100,9631420,2163,43.57,-121.82,298444215,164597,1440,7483,1440
Papua New Guinea,Papua New Guinea,Eruption Dated,1350,Rhyolite,Trachyte / Trachydacite,Trachyandesite / Basaltic Trachyandesite, , , , , , , ,"12,3",Volcanic field,OCEANIA,Melanesia and Australia,New Guinea and D'Entrecasteaux Islands,Subduction zone / Continental crust (>25 km),Dawson Strait Group,253060,462840,500,-9.62,150.88,5670544,80476,5388,7721,5388
Indonesia,Indonesia,Eruption Observed,2017,Andesite / Basaltic Andesite, , , , , , , , , ,"127,9",Stratovolcano,ASIA (EX. NEAR EAST),Indonesia,Sumatra,Subduction zone / Continental crust (>25 km),Dempo,261230,1919440,3142,-4.016,103.121,245452739,2307584,9613,96058,124
Chile,Chile,Eruption Observed,1933,Andesite / Basaltic Andesite,Dacite, , , , , , , , ,"21,3",Stratovolcano,LATIN AMER. & CARIB,South America,Central Chile and Argentina,Subduction zone / Continental crust (>25 km),Descabezado Grande,357050,756950,3953,-35.58,-70.75,16134219,704116,142,3454,39
United States,United States,Evidence Uncertain,Unknown,Basalt / Picro-Basalt, , , , , , , , , ,"31,0",Volcanic field,NORTHERN AMERICA,Canada and Western USA,USA (Oregon),Rift zone / Continental crust (>25 km),Devils Garden,322120,9631420,1698,43.512,-120.861,298444215,162601,51,287,51
Yemen,Yemen,Eruption Observed,1937,Basalt / Picro-Basalt,Rhyolite, , , , , , , , ,"40,6",Volcanic field,NEAR EAST,Middle East and Indian Ocean,Middle East (southern),Intraplate / Continental crust (>25 km),"Dhamar, Harras of",231120,527970,3500,14.57,44.67,21456188,5778965,791276,791276,791276
Dominica,Dominica,Evidence Credible,Unknown,Andesite / Basaltic Andesite,Dacite, , , , , , , , ,"91,4",Lava dome,LATIN AMER. & CARIB,West Indies,West Indies,Subduction zone / Oceanic crust (< 15 km),"Diables, Morne aux",360080,754,861,15.612,-61.43,68910,479470,12036,33148,8048
Dominica,Dominica,Evidence Uncertain,Unknown,Andesite / Basaltic Andesite,Dacite,Basalt / Picro-Basalt, , , , , , , ,"91,4",Stratovolcano,LATIN AMER. & CARIB,West Indies,West Indies,Subduction zone / Oceanic crust (< 15 km),"Diablotins, Morne",360090,754,1430,15.503,-61.397,68910,513702,9775,69935,423
United States,United States,Eruption Dated,-5610,Basalt / Picro-Basalt, , , , , , , , , ,"31,0",Volcanic field,NORTHERN AMERICA,Canada and Western USA,USA (Oregon),Rift zone / Continental crust (>25 km),Diamond Craters,322170,9631420,1435,43.1,-118.75,298444215,6969,66,136,66
Indonesia,Indonesia,Eruption Observed,2018,Andesite / Basaltic Andesite,Basalt / Picro-Basalt, , , , , , , , ,"127,9",Complex,ASIA (EX. NEAR EAST),Indonesia,Java,Subduction zone / Continental crust (>25 km),Dieng Volcanic Complex,263200,1919440,2565,-7.2,109.879,245452739,24381814,1092929,1886942,1092929
Russia,Russia,Eruption Dated,350,Dacite,Andesite / Basaltic Andesite,Rhyolite, , , , , , , ,"8,4",Lava dome,C.W. OF IND. STATES,Kamchatka and Mainland Asia,Kamchatka Peninsula,Subduction zone / Continental crust (>25 km),Diky Greben,300022,17075200,1040,51.452,156.978,142893540,4568,56,544,0
Argentina,Argentina,Evidence Uncertain,Unknown,Dacite, , , , , , , , , ,"14,4",Stratovolcano,LATIN AMER. & CARIB,South America,Central Chile and Argentina,Subduction zone / Continental crust (>25 km),Domuyo,357067,2766890,4702,-36.638,-70.432,39921833,30006,34,1425,1
Eritrea,Eritrea,Eruption Observed,1861,Basalt / Picro-Basalt,Trachybasalt / Tephrite Basanite, , , ,Trachyandesite / Basaltic Trachyandesite,Trachyte / Trachydacite,Rhyolite, , ,"39,5",Stratovolcano,SUB-SAHARAN AFRICA,Africa and Red Sea,Africa (northeastern) and Red Sea,Rift zone / Intermediate crust (15-25 km),Dubbi,221100,121320,1625,13.579,41.809,4786994,14867,0,18,0
Indonesia,Indonesia,Eruption Observed,2020,Andesite / Basaltic Andesite,Trachyte / Trachydacite,Basalt / Picro-Basalt, , , , , , , ,"127,9",Complex,ASIA (EX. NEAR EAST),Indonesia,Halmahera,Subduction zone / Oceanic crust (< 15 km),Dukono,268010,1919440,1229,1.693,127.894,245452739,393070,3348,101506,1575
Mexico,Mexico,Evidence Credible,Unknown,Trachybasalt / Tephrite Basanite,Basalt / Picro-Basalt, , , , , , , , ,"54,5",Pyroclastic cone,LATIN AMER. & CARIB,México and Central America,Mexico,Subduction zone / Continental crust (>25 km),Durango Volcanic Field,341022,1972550,2075,24.15,-104.45,107449525,797133,571282,571282,571282
Russia,Russia,Evidence Credible,Unknown,Andesite / Basaltic Andesite,Dacite, , , , , , , , ,"8,4",Others,C.W. OF IND. STATES,Kamchatka and Mainland Asia,Kamchatka Peninsula,Subduction zone / Continental crust (>25 km),Dzenzursky,300110,17075200,2285,53.637,158.922,142893540,250934,0,110,0
United States,United States,Unrest / Holocene,Unknown,Dacite, , , , , , , , , ,"31,0",Others,NORTHERN AMERICA,"Japan, Taiwan, Marianas","Izu, Volcano, and Mariana Islands",Subduction zone / Crustal thickness unknown,East Diamante,284201,9631420,-127,15.93,145.67,298444215,76403,0,0,0
Chile,Chile,Evidence Credible,Unknown,Basalt / Picro-Basalt,Trachyandesite / Basaltic Trachyandesite,Trachybasalt / Tephrite Basanite,Rhyolite, ,Trachyte / Trachydacite, , , , ,"21,3",Shield,LATIN AMER. & CARIB,South America,Pacific Ocean (Chilean Islands),Rift zone / Oceanic crust (< 15 km),Easter Island,356011,756950,511,-27.15,-109.38,16134219,4091,4029,4091,698
Russia,Russia,Eruption Observed,2020,Andesite / Basaltic Andesite, , , , , , , , , ,"8,4",Stratovolcano,C.W. OF IND. STATES,Kuril Islands,Kuril Islands,Subduction zone / Continental crust (>25 km),Ebeko,290380,17075200,1103,50.686,156.014,142893540,3098,267,1076,0
Kenya,Kenya,Evidence Credible,Unknown,Rhyolite,Phonolite,Trachyte / Trachydacite, , , , , , , ,"59,6",Complex,SUB-SAHARAN AFRICA,Africa and Red Sea,Africa (eastern),Rift zone / Continental crust (>25 km),"Eburru, Ol Doinyo",222080,582650,2856,-0.65,36.22,34707817,7992639,9365,323529,460
Ecuador,Ecuador,Eruption Dated,1150,Basalt / Picro-Basalt, , , , , , , , , ,"47,8",Shield,LATIN AMER. & CARIB,South America,Galapagos Islands,Rift zone / Oceanic crust (< 15 km),Ecuador,353011,283560,790,-0.02,-91.546,13547510,894,135,193,135
United States,United States,Eruption Dated,-2220,Andesite / Basaltic Andesite,Basalt / Picro-Basalt,Rhyolite,Dacite, , , , , , ,"31,0",Stratovolcano,NORTHERN AMERICA,Alaska,Alaska (eastern),Intraplate / Continental crust (>25 km),Edgecumbe,315040,9631420,970,57.05,-135.75,298444215,7074,0,6613,0
Canada,Canada,Eruption Dated,950,Trachyte / Trachydacite,Basalt / Picro-Basalt,Trachybasalt / Tephrite Basanite,Rhyolite, ,Trachyandesite / Basaltic Trachyandesite, , , , ,"3,3",Stratovolcano,NORTHERN AMERICA,Canada and Western USA,Canada,Intraplate / Continental crust (>25 km),Edziza,320060,9984670,2786,57.72,-130.63,33098932,898,0,0,0
Russia,Russia,Eruption Dated,50,Dacite,Andesite / Basaltic Andesite,Rhyolite,Trachyte / Trachydacite, , , , , , ,"8,4",Stratovolcano,C.W. OF IND. STATES,Mediterranean and Western Asia,Western Asia,Intraplate / Continental crust (>25 km),Elbrus,214010,17075200,5642,43.351,42.442,142893540,1469719,195,5718,26
Russia,Russia,Eruption Dated,-7550,Basalt / Picro-Basalt, , , , , , , , , ,"8,4",Shield,C.W. OF IND. STATES,Kamchatka and Mainland Asia,Kamchatka Peninsula,Subduction zone / Continental crust (>25 km),Elovsky,300590,17075200,1381,57.55,160.53,142893540,2704,0,44,0
United States,United States,Evidence Credible,Unknown,Andesite / Basaltic Andesite,Basalt / Picro-Basalt,Rhyolite, , , , , , , ,"31,0",Caldera,NORTHERN AMERICA,Alaska,Alaska Peninsula,Subduction zone / Continental crust (>25 km),Emmons Lake,312020,9631420,1436,55.341,-162.073,298444215,1199,0,686,0
Kenya,Kenya,Eruption Dated,1910,Trachyte / Trachydacite,Basalt / Picro-Basalt, , , , , , , , ,"59,6",Shield,SUB-SAHARAN AFRICA,Africa and Red Sea,Africa (eastern),Rift zone / Continental crust (>25 km),Emuruangogolak,222051,582650,1285,1.5,36.33,34707817,445177,252,4448,80
Canada,Canada,Eruption Dated,-3490,Basalt / Picro-Basalt, , , , , , , , , ,"3,3",Others,NORTHERN AMERICA,Hawaii and Pacific Ocean,Pacific Ocean (northern),Rift zone / Oceanic crust (< 15 km),Endeavour Segment,331010,9984670,-2050,47.95,-129.1,33098932,0,0,0,0
Vanuatu,Vanuatu,Eruption Observed,2004,Basalt / Picro-Basalt,Andesite / Basaltic Andesite,Dacite, , , , , , , ,"17,1",Stratovolcano,OCEANIA,Melanesia and Australia,Vanuatu,Subduction zone / Intermediate crust (15-25 km),Epi,257060,12200,833,-16.68,168.37,208869,52827,170,7819,0
Turkey,Turkey,Eruption Dated,-6880,Dacite,Andesite / Basaltic Andesite,Rhyolite,Trachyandesite / Basaltic Trachyandesite,Trachyte / Trachydacite, , , , , ,"90,2",Stratovolcano,NEAR EAST,Mediterranean and Western Asia,Turkey,Intraplate / Continental crust (>25 km),Erciyes Dagi,213010,780580,3864,38.531,35.447,70413958,1817720,8036,767813,1715
Ethiopia,Ethiopia,Eruption Observed,2020,Basalt / Picro-Basalt,Andesite / Basaltic Andesite, , , , , , , , ,"66,3",Shield,SUB-SAHARAN AFRICA,Africa and Red Sea,Africa (northeastern) and Red Sea,Rift zone / Intermediate crust (15-25 km),Erta Ale,221080,1127127,613,13.6,40.67,74777981,235083,2796,8857,2685
Japan,Japan,Eruption Observed,1874,Andesite / Basaltic Andesite,Dacite, , , , , , , , ,"337,4",Lava dome,ASIA (EX. NEAR EAST),"Japan, Taiwan, Marianas",Hokkaido,Subduction zone / Continental crust (>25 km),Esan,285011,377835,618,41.805,141.166,127463611,916560,5831,33197,1734
Iceland,Iceland,Unrest / Holocene,Unknown,Basalt / Picro-Basalt, , , , ,Rhyolite, , , , ,"2,9",Stratovolcano,WESTERN EUROPE,Iceland and Arctic Ocean,Iceland (southeastern),Rift zone / Oceanic crust (< 15 km),Esjufjoll,374020,103000,1620,64.25,-16.583,299388,2564,0,0,0
Nicaragua,Nicaragua,Evidence Uncertain,Unknown,Basalt / Picro-Basalt, , , , , , , , , ,"43,0",Others,LATIN AMER. & CARIB,México and Central America,Nicaragua,Subduction zone / Continental crust (>25 km),Esteli,344131,129494,899,13.17,-86.4,5570129,2574633,133804,246244,133804
Italy,Italy,Eruption Observed,2020,Trachybasalt / Tephrite Basanite,Trachyandesite / Basaltic Trachyandesite,Basalt / Picro-Basalt, , ,Trachyte / Trachydacite,Phono-tephrite /  Tephri-phonolite, , , ,"193,0",Stratovolcano,WESTERN EUROPE,Mediterranean and Western Asia,Italy,Subduction zone / Continental crust (>25 km),Etna,211060,301230,3295,37.748,14.999,58133509,3052770,3291,1016540,78
Iceland,Iceland,Eruption Observed,2010,Basalt / Picro-Basalt,Trachyandesite / Basaltic Trachyandesite,Trachybasalt / Tephrite Basanite,Trachyte / Trachydacite, , , , , , ,"2,9",Stratovolcano,WESTERN EUROPE,Iceland and Arctic Ocean,Iceland (southern),Rift zone / Oceanic crust (< 15 km),Eyjafjallajokull,372020,103000,1651,63.633,-19.633,299388,18516,4,786,0
United States,United States,Eruption Observed,1967,Andesite / Basaltic Andesite, , , , , , , , , ,"31,0",Stratovolcano,NORTHERN AMERICA,"Japan, Taiwan, Marianas","Izu, Volcano, and Mariana Islands",Subduction zone / Crustal thickness unknown,Farallon de Pajaros,284140,9631420,337,20.546,144.893,298444215,0,0,0,0
Portugal,Portugal,Eruption Observed,1958,Andesite / Basaltic Andesite,Basalt / Picro-Basalt,Trachybasalt / Tephrite Basanite,Trachyte / Trachydacite,Trachyandesite / Basaltic Trachyandesite, , , , , ,"114,8",Stratovolcano,WESTERN EUROPE,Atlantic Ocean,Azores,Rift zone / Oceanic crust (< 15 km),Fayal,382010,92391,1043,38.6,-28.73,10605870,50663,13757,24414,1514
Ethiopia,Ethiopia,Eruption Observed,1820,Rhyolite,Trachyte / Trachydacite,Trachybasalt / Tephrite Basanite,Andesite / Basaltic Andesite, , , , , , ,"66,3",Stratovolcano,SUB-SAHARAN AFRICA,Africa and Red Sea,Africa (northeastern) and Red Sea,Rift zone / Continental crust (>25 km),Fentale,221190,1127127,2007,8.975,39.93,74777981,3482286,14201,169357,1919
United States,United States,Eruption Observed,1830,Andesite / Basaltic Andesite,Dacite,Basalt / Picro-Basalt,Trachyte / Trachydacite, , , , , , ,"31,0",Stratovolcano,NORTHERN AMERICA,Alaska,Aleutian Islands,Subduction zone / Continental crust (>25 km),Fisher,311350,9631420,1112,54.65,-164.43,298444215,25,0,0,0
Guatemala,Guatemala,Evidence Credible,Unknown,Basalt / Picro-Basalt, , , , , , , , , ,"112,9",Volcanic field,LATIN AMER. & CARIB,México and Central America,Guatemala,Subduction zone / Continental crust (>25 km),Flores,342140,108890,1600,14.308,-89.992,12293545,7489933,205145,397357,205145
Portugal,Portugal,Eruption Dated,-950,Basalt / Picro-Basalt,Trachybasalt / Tephrite Basanite,Trachyandesite / Basaltic Trachyandesite,Trachyte / Trachydacite, ,Phono-tephrite /  Tephri-phonolite, , , , ,"114,8",Stratovolcano,WESTERN EUROPE,Atlantic Ocean,Azores,Intraplate / Continental crust (>25 km),Flores,382001,92391,914,39.462,-31.216,10605870,5865,4560,5825,1054
Cape Verde,Cape Verde,Eruption Observed,2015,Foidite,Trachybasalt / Tephrite Basanite,Phonolite, , , , , , , ,"104,4",Stratovolcano,SUB-SAHARAN AFRICA,Atlantic Ocean,Cape Verde Islands,Intraplate / Intermediate crust (15-25 km),Fogo,384010,4033,2829,14.95,-24.35,420979,267298,13254,37650,189
Uganda,Uganda,Eruption Dated,-2120,Foidite, , , , , , , , , ,"119,5",Others,SUB-SAHARAN AFRICA,Africa and Red Sea,Africa (central),Rift zone / Continental crust (>25 km),Fort Portal,223001,236040,1615,0.7,30.25,28195754,4167189,242914,498815,242914
Canada,Canada,Evidence Uncertain,Unknown,Trachybasalt / Tephrite Basanite,Basalt / Picro-Basalt,Foidite, , , , , , , ,"3,3",Volcanic field,NORTHERN AMERICA,Canada and Western USA,Canada,Intraplate / Continental crust (>25 km),Fort Selkirk,320010,9984670,1239,62.93,-137.38,33098932,491,6,6,6
France,France,Eruption Observed,2020,Basalt / Picro-Basalt,Trachybasalt / Tephrite Basanite, , , , , , , , ,"111,3",Shield,WESTERN EUROPE,Middle East and Indian Ocean,Indian Ocean (western),Intraplate / Oceanic crust (< 15 km),"Fournaise, Piton de la",233020,547030,2632,-21.244,55.708,60876136,717820,55859,246792,55859
Iceland,Iceland,Eruption Dated,-1200,Basalt / Picro-Basalt,Rhyolite, , , , , , , , ,"2,9",Stratovolcano,WESTERN EUROPE,Iceland and Arctic Ocean,Iceland (northeastern),Rift zone / Oceanic crust (< 15 km),Fremrinamar,373070,103000,970,65.416,-16.666,299388,19143,0,476,0
United States,United States,Evidence Credible,Unknown,Andesite / Basaltic Andesite,Basalt / Picro-Basalt, , , , , , , , ,"31,0",Stratovolcano,NORTHERN AMERICA,Alaska,Alaska Peninsula,Subduction zone / Continental crust (>25 km),Frosty,312010,9631420,1728,55.067,-162.835,298444215,1153,0,67,0
Guatemala,Guatemala,Eruption Observed,2020,Basalt / Picro-Basalt,Andesite / Basaltic Andesite, , , ,Trachyandesite / Basaltic Trachyandesite, , , , ,"112,9",Stratovolcano,LATIN AMER. & CARIB,México and Central America,Guatemala,Subduction zone / Continental crust (>25 km),Fuego,342090,108890,3763,14.473,-90.88,12293545,7677809,54332,1016339,1373
Spain,Spain,Evidence Credible,Unknown,Basalt / Picro-Basalt,Trachybasalt / Tephrite Basanite,Foidite,Trachyandesite / Basaltic Trachyandesite, , , , , , ,"80,0",Others,WESTERN EUROPE,Atlantic Ocean,Canary Islands,Intraplate / Intermediate crust (15-25 km),Fuerteventura,383050,504782,529,28.358,-14.02,40397842,226781,8752,52038,1432
Japan,Japan,Eruption Observed,1708,Basalt / Picro-Basalt, , , , ,Andesite / Basaltic Andesite,Dacite, , , ,"337,4",Stratovolcano,ASIA (EX. NEAR EAST),"Japan, Taiwan, Marianas",Honshu,Subduction zone / Continental crust (>25 km),Fujisan,283030,377835,3776,35.361,138.728,127463611,25022187,1759,906969,570
Japan,Japan,Eruption Dated,-400,Basalt / Picro-Basalt, , , , , , , , , ,"337,4",Shield,ASIA (EX. NEAR EAST),"Japan, Taiwan, Marianas",Ryukyu Islands and Kyushu,Subduction zone / Continental crust (>25 km),Fukue,282091,377835,315,32.657,128.849,127463611,704523,40407,61450,18334
Portugal,Portugal,Eruption Observed,1630,Trachyte / Trachydacite,Basalt / Picro-Basalt,Trachybasalt / Tephrite Basanite,Trachyandesite / Basaltic Trachyandesite, , , , , , ,"114,8",Stratovolcano,WESTERN EUROPE,Atlantic Ocean,Azores,Rift zone / Oceanic crust (< 15 km),Furnas,382100,92391,805,37.77,-25.32,10605870,153182,7310,87865,1333
Ethiopia,Ethiopia,Evidence Credible,Unknown,Rhyolite,Basalt / Picro-Basalt,Trachybasalt / Tephrite Basanite,Trachyandesite / Basaltic Trachyandesite, , , , , , ,"66,3",Stratovolcano,SUB-SAHARAN AFRICA,Africa and Red Sea,Africa (northeastern) and Red Sea,Rift zone / Intermediate crust (15-25 km),Gabillema,221150,1127127,1459,11.08,41.27,74777981,373968,772,12626,248
Ethiopia,Ethiopia,Evidence Credible,Unknown,Basalt / Picro-Basalt,Trachyandesite / Basaltic Trachyandesite,Trachyte / Trachydacite, , , , , , , ,"66,3",Stratovolcano,SUB-SAHARAN AFRICA,Africa and Red Sea,Africa (northeastern) and Red Sea,Rift zone / Intermediate crust (15-25 km),Gada Ale,221050,1127127,287,13.975,40.408,74777981,618972,605,4827,101
Colombia,Colombia,Eruption Observed,2014,Andesite / Basaltic Andesite, , , , ,Dacite, , , , ,"38,3",Complex,LATIN AMER. & CARIB,South America,Colombia,Subduction zone / Continental crust (>25 km),Galeras,351080,1138910,4276,1.22,-77.37,43593035,1700248,120817,630777,705
Solomon Islands,Solomon Islands,Evidence Uncertain,Unknown,Andesite / Basaltic Andesite, , , , , , , , , ,"19,4",Volcanic field,OCEANIA,Melanesia and Australia,Bougainville and Solomon Islands,Subduction zone / Crustal thickness unknown,Gallego,255062,28450,1000,-9.35,159.73,552438,169626,10017,81587,10017
Indonesia,Indonesia,Eruption Observed,1984,Basalt / Picro-Basalt,Andesite / Basaltic Andesite, , , ,Rhyolite, , , , ,"127,9",Stratovolcano,ASIA (EX. NEAR EAST),Indonesia,Java,Subduction zone / Continental crust (>25 km),Galunggung,263140,1919440,2168,-7.25,108.058,245452739,23897342,66495,2382939,4781
Indonesia,Indonesia,Eruption Observed,2018,Andesite / Basaltic Andesite, , , , ,Dacite, , , , ,"127,9",Stratovolcano,ASIA (EX. NEAR EAST),Indonesia,Halmahera,Subduction zone / Oceanic crust (< 15 km),Gamalama,268060,1919440,1715,0.8,127.33,245452739,536972,204820,308691,103429
Russia,Russia,Eruption Dated,-550,Basalt / Picro-Basalt,Andesite / Basaltic Andesite, , , , , , , , ,"8,4",Complex,C.W. OF IND. STATES,Kamchatka and Mainland Asia,Kamchatka Peninsula,Subduction zone / Continental crust (>25 km),Gamchen,300210,17075200,2539,54.974,160.703,142893540,3829,0,382,0
Indonesia,Indonesia,Eruption Observed,2007,Andesite / Basaltic Andesite, , , , , , , , , ,"127,9",Stratovolcano,ASIA (EX. NEAR EAST),Indonesia,Halmahera,Subduction zone / Oceanic crust (< 15 km),Gamkonora,268040,1919440,1635,1.38,127.53,245452739,627128,12744,61376,3354
Canada,Canada,Eruption Dated,-8060,Dacite,Andesite / Basaltic Andesite, , , , , , , , ,"3,3",Stratovolcano,NORTHERN AMERICA,Canada and Western USA,Canada,Subduction zone / Continental crust (>25 km),Garibaldi,320200,9984670,2678,49.85,-123,33098932,2264818,22,16058,0
Canada,Canada,Evidence Credible,Unknown,Andesite / Basaltic Andesite,Basalt / Picro-Basalt, , , ,Dacite,Trachyandesite / Basaltic Trachyandesite, , , ,"3,3",Volcanic field,NORTHERN AMERICA,Canada and Western USA,Canada,Subduction zone / Continental crust (>25 km),Garibaldi Lake,320190,9984670,2316,49.933,-123,33098932,2218089,6635,28109,6635
Papua New Guinea,Papua New Guinea,Evidence Credible,Unknown,Andesite / Basaltic Andesite,Dacite,Basalt / Picro-Basalt, , ,Rhyolite, , , , ,"12,3",Stratovolcano,OCEANIA,Melanesia and Australia,New Britain,Subduction zone / Oceanic crust (< 15 km),Garove,252030,462840,368,-4.687,149.511,5670544,18704,5887,6388,4259
Papua New Guinea,Papua New Guinea,Evidence Uncertain,Unknown,Rhyolite,Andesite / Basaltic Andesite, , , , , , , , ,"12,3",Volcanic field,OCEANIA,Melanesia and Australia,New Britain,Subduction zone / Continental crust (>25 km),Garua Harbour,252060,462840,565,-5.3,150.07,5670544,123676,12090,44354,12090
Vanuatu,Vanuatu,Eruption Observed,2011,Andesite / Basaltic Andesite,Basalt / Picro-Basalt, , , ,Dacite, , , , ,"17,1",Stratovolcano,OCEANIA,Melanesia and Australia,Vanuatu,Subduction zone / Intermediate crust (15-25 km),Gaua,257020,12200,797,-14.27,167.5,208869,8834,1200,2848,166
Ethiopia,Ethiopia,Evidence Credible,Unknown,Rhyolite,Trachyte / Trachydacite, , , ,Basalt / Picro-Basalt, , , , ,"66,3",Caldera,SUB-SAHARAN AFRICA,Africa and Red Sea,Africa (northeastern) and Red Sea,Rift zone / Continental crust (>25 km),Gedamsa,221230,1127127,1873,8.357,39.188,74777981,8000105,216008,744211,216008
Indonesia,Indonesia,Eruption Observed,1957,Andesite / Basaltic Andesite,Basalt / Picro-Basalt, , , , , , , , ,"127,9",Stratovolcano,ASIA (EX. NEAR EAST),Indonesia,Java,Subduction zone / Continental crust (>25 km),Gede-Pangrango,263060,1919440,3008,-6.77,106.965,245452739,40640105,154390,2315469,2500
Ecuador,Ecuador,Evidence Credible,Unknown,Basalt / Picro-Basalt, , , , , , , , , ,"47,8",Shield,LATIN AMER. & CARIB,South America,Galapagos Islands,Rift zone / Oceanic crust (< 15 km),Genovesa,353081,283560,64,0.32,-89.958,13547510,2665,197,197,197
Armenia,Armenia,Eruption Dated,-1900,Andesite / Basaltic Andesite,Rhyolite,Dacite, , , , , , , ,"99,9",Volcanic field,C.W. OF IND. STATES,Mediterranean and Western Asia,Western Asia,Intraplate / Continental crust (>25 km),Ghegham Volcanic Ridge,214070,29800,3597,40.283,45,2976372,3151168,1265153,1265153,1265153
United States,United States,Eruption Dated,1700,Dacite,Andesite / Basaltic Andesite, , , ,Basalt / Picro-Basalt, , , , ,"31,0",Stratovolcano,NORTHERN AMERICA,Canada and Western USA,USA (Washington),Subduction zone / Continental crust (>25 km),Glacier Peak,321020,9631420,3213,48.112,-121.113,298444215,1340896,0,23,0
Mexico,Mexico,Evidence Credible,Unknown,Andesite / Basaltic Andesite,Trachyandesite / Basaltic Trachyandesite,Basalt / Picro-Basalt, , ,Dacite, , , , ,"54,5",Volcanic field,LATIN AMER. & CARIB,México and Central America,Mexico,Subduction zone / Continental crust (>25 km),"Gloria, La",341097,1972550,3500,19.33,-97.25,107449525,5697562,108512,290739,108512
United States,United States,Eruption Dated,-5550,Basalt / Picro-Basalt, , , , , , , , , ,"31,0",Volcanic field,NORTHERN AMERICA,Canada and Western USA,USA (California),Rift zone / Continental crust (>25 km),Golden Trout Creek,323170,9631420,2886,36.358,-118.32,298444215,461496,3,273,3
Papua New Guinea,Papua New Guinea,Evidence Credible,Unknown,Andesite / Basaltic Andesite, , , , , , , , , ,"12,3",Volcanic field,OCEANIA,Melanesia and Australia,New Guinea and D'Entrecasteaux Islands,Subduction zone / Continental crust (>25 km),Goodenough,253041,462840,220,-9.48,150.35,5670544,127955,7639,17932,7639
Russia,Russia,Eruption Observed,2010,Basalt / Picro-Basalt,Andesite / Basaltic Andesite,Dacite, , , , , , , ,"8,4",Caldera,C.W. OF IND. STATES,Kamchatka and Mainland Asia,Kamchatka Peninsula,Subduction zone / Continental crust (>25 km),Gorely,300070,17075200,1799,52.559,158.03,142893540,250293,0,19,0
Portugal,Portugal,Eruption Dated,-1950,Basalt / Picro-Basalt,Andesite / Basaltic Andesite,Trachyte / Trachydacite, , , , , , , ,"114,8",Stratovolcano,WESTERN EUROPE,Atlantic Ocean,Azores,Rift zone / Oceanic crust (< 15 km),Graciosa,382040,92391,402,39.02,-27.97,10605870,96656,5941,6153,2500
Spain,Spain,Eruption Dated,40,Trachybasalt / Tephrite Basanite,Phono-tephrite /  Tephri-phonolite,Phonolite,Trachyte / Trachydacite,Basalt / Picro-Basalt, , , , , ,"80,0",Others,WESTERN EUROPE,Atlantic Ocean,Canary Islands,Intraplate / Intermediate crust (15-25 km),Gran Canaria,383040,504782,1950,28,-15.58,40397842,1119998,8049,697199,1101
Nicaragua,Nicaragua,Evidence Credible,Unknown,Basalt / Picro-Basalt, , , , ,Dacite, , , , ,"43,0",Others,LATIN AMER. & CARIB,México and Central America,Nicaragua,Subduction zone / Continental crust (>25 km),Granada,344101,129494,300,11.92,-85.98,5570129,2722372,137880,678798,105952
Iceland,Iceland,Eruption Dated,-3500,Basalt / Picro-Basalt, , , , , , , , , ,"2,9",Others,WESTERN EUROPE,Iceland and Arctic Ocean,Iceland (southwestern),Rift zone / Oceanic crust (< 15 km),Grimsnes,371060,103000,200,64.05,-20.883,299388,197798,6253,11236,6253
Iceland,Iceland,Eruption Observed,2011,Basalt / Picro-Basalt, , , , , , , , , ,"2,9",Caldera,WESTERN EUROPE,Iceland and Arctic Ocean,Iceland (northeastern),Rift zone / Oceanic crust (< 15 km),Grimsvotn,373010,103000,1719,64.416,-17.316,299388,1736,0,0,0
Ecuador,Ecuador,Eruption Observed,2002,Andesite / Basaltic Andesite,Dacite, , , , , , , , ,"47,8",Stratovolcano,LATIN AMER. & CARIB,South America,Ecuador,Subduction zone / Continental crust (>25 km),Guagua Pichincha,352020,283560,4784,-0.171,-78.598,13547510,3581801,32488,2064475,449
El Salvador,El Salvador,Evidence Uncertain,Unknown,Basalt / Picro-Basalt, , , , , , , , , ,"324,3",Stratovolcano,LATIN AMER. & CARIB,México and Central America,El Salvador and Honduras,Subduction zone / Continental crust (>25 km),Guazapa,343052,21040,1438,13.9,-89.12,6822378,6800406,94131,2488228,6492
Indonesia,Indonesia,Eruption Observed,1847,Andesite / Basaltic Andesite,Basalt / Picro-Basalt, , , , , , , , ,"127,9",Complex,ASIA (EX. NEAR EAST),Indonesia,Java,Subduction zone / Continental crust (>25 km),Guntur,263130,1919440,2249,-7.143,107.84,245452739,24486191,218012,3412038,4652
Japan,Japan,Eruption Observed,1606,Basalt / Picro-Basalt,Andesite / Basaltic Andesite, , , , , , , , ,"337,4",Stratovolcano,ASIA (EX. NEAR EAST),"Japan, Taiwan, Marianas","Izu, Volcano, and Mariana Islands",Subduction zone / Oceanic crust (< 15 km),Hachijojima,284050,377835,854,33.137,139.766,127463611,14082,13560,13564,11275
Japan,Japan,Eruption Dated,-5350,Andesite / Basaltic Andesite,Basalt / Picro-Basalt,Dacite, , , , , , , ,"337,4",Stratovolcano,ASIA (EX. NEAR EAST),"Japan, Taiwan, Marianas",Honshu,Subduction zone / Continental crust (>25 km),Hachimantai,283250,377835,1613,39.958,140.854,127463611,3131126,1261,89833,268
China,China,Eruption Observed,1933,Basalt / Picro-Basalt, , , , , , , , , ,"136,9",Pyroclastic cone,ASIA (EX. NEAR EAST),Philippines and SE Asia,Southeast Asia,Intraplate / Continental crust (>25 km),Hainan Volcanic Field,275001,9596960,196,19.905,110.229,1313973713,6213231,1731229,1731229,1731229
Japan,Japan,Eruption Dated,1550,Andesite / Basaltic Andesite,Dacite,Basalt / Picro-Basalt,Rhyolite, , , , , , ,"337,4",Stratovolcano,ASIA (EX. NEAR EAST),"Japan, Taiwan, Marianas",Honshu,Subduction zone / Continental crust (>25 km),Hakkodasan,283280,377835,1585,40.659,140.877,127463611,1921667,730,476624,225
Japan,Japan,Eruption Dated,2015,Andesite / Basaltic Andesite,Basalt / Picro-Basalt,Dacite, , , , , , , ,"337,4",Complex,ASIA (EX. NEAR EAST),"Japan, Taiwan, Marianas",Honshu,Subduction zone / Continental crust (>25 km),Hakoneyama,283020,377835,1438,35.233,139.021,127463611,30282197,53755,1543563,14140
Japan,Japan,Eruption Observed,1659,Andesite / Basaltic Andesite,Dacite, , , , , , , , ,"337,4",Stratovolcano,ASIA (EX. NEAR EAST),"Japan, Taiwan, Marianas",Honshu,Subduction zone / Continental crust (>25 km),Hakusan,283050,377835,2702,36.155,136.771,127463611,5959200,807,63965,474
United States,United States,Eruption Dated,1750,Basalt / Picro-Basalt,Trachybasalt / Tephrite Basanite, , , , , , , , ,"31,0",Shield,NORTHERN AMERICA,Hawaii and Pacific Ocean,Hawaiian Islands,Intraplate / Oceanic crust (< 15 km),Haleakala,332060,9631420,3055,20.708,-156.25,298444215,157582,26074,65398,26074
Yemen,Yemen,Evidence Credible,Unknown,Basalt / Picro-Basalt,Trachybasalt / Tephrite Basanite,Trachyandesite / Basaltic Trachyandesite, , , , , , , ,"40,6",Shield,NEAR EAST,Africa and Red Sea,Africa (northeastern) and Red Sea,Rift zone / Oceanic crust (< 15 km),Hanish,221022,527970,422,13.72,42.73,21456188,850223,304,811,219
Papua New Guinea,Papua New Guinea,Eruption Dated,950,Dacite,Andesite / Basaltic Andesite, , , , , , , , ,"12,3",Stratovolcano,OCEANIA,Melanesia and Australia,New Britain,Subduction zone / Continental crust (>25 km),Hargy,252100,462840,1148,-5.33,151.1,5670544,85504,5093,14613,84
Japan,Japan,Eruption Dated,550,Andesite / Basaltic Andesite,Dacite,Basalt / Picro-Basalt, , , , , , , ,"337,4",Stratovolcano,ASIA (EX. NEAR EAST),"Japan, Taiwan, Marianas",Honshu,Subduction zone / Continental crust (>25 km),Harunasan,283122,377835,1449,36.477,138.851,127463611,14076385,36116,1185012,1135
Turkey,Turkey,Evidence Credible,Unknown,Dacite,Andesite / Basaltic Andesite,Rhyolite,Basalt / Picro-Basalt,Trachyandesite / Basaltic Trachyandesite, , , , , ,"90,2",Stratovolcano,NEAR EAST,Mediterranean and Western Asia,Turkey,Intraplate / Continental crust (>25 km),Hasan Dagi,213002,780580,3253,38.13,34.17,70413958,1362673,4979,174584,235
Vietnam,Vietnam,Evidence Uncertain,Unknown,Basalt / Picro-Basalt,Trachybasalt / Tephrite Basanite,Trachyandesite / Basaltic Trachyandesite,Andesite / Basaltic Andesite, , , , , , ,"256,1",Volcanic field,ASIA (EX. NEAR EAST),Philippines and SE Asia,Southeast Asia,Intraplate / Continental crust (>25 km),Haut Dong Nai,275040,329560,1000,11.6,108.2,84402966,2975160,136278,344723,136278
Yemen,Yemen,Eruption Dated,-1200,Basalt / Picro-Basalt, , , , , , , , , ,"40,6",Volcanic field,NEAR EAST,Middle East and Indian Ocean,Middle East (southern),Intraplate / Continental crust (>25 km),"Haylan, Jabal",231110,527970,1550,15.4,45.1,21456188,4164209,225754,225754,225754
New Zealand,New Zealand,Eruption Dated,1360,Dacite, , , , ,Rhyolite,Basalt / Picro-Basalt, , , ,"15,2",Others,OCEANIA,New Zealand to Fiji,New Zealand,Subduction zone / Oceanic crust (< 15 km),Healy,241140,268680,-980,-35.004,178.973,4076140,0,0,0,0
Australia,Australia,Eruption Observed,2020,Trachybasalt / Tephrite Basanite,Basalt / Picro-Basalt,Trachyandesite / Basaltic Trachyandesite,Trachyte / Trachydacite,Phono-tephrite /  Tephri-phonolite, , , , , ,"2,6",Stratovolcano,OCEANIA,Middle East and Indian Ocean,Indian Ocean (southern),Intraplate / Oceanic crust (< 15 km),Heard,234010,7686850,2745,-53.106,73.513,20264082,0,0,0,0
Iceland,Iceland,Eruption Observed,2000,Andesite / Basaltic Andesite,Basalt / Picro-Basalt,Rhyolite,Dacite, , , , , , ,"2,9",Stratovolcano,WESTERN EUROPE,Iceland and Arctic Ocean,Iceland (southern),Rift zone / Oceanic crust (< 15 km),Hekla,372070,103000,1490,63.983,-19.666,299388,22845,0,298,0
Iceland,Iceland,Evidence Credible,Unknown,Basalt / Picro-Basalt, , , , , , , , , ,"2,9",Pyroclastic cone,WESTERN EUROPE,Iceland and Arctic Ocean,Iceland (western),Rift zone / Oceanic crust (< 15 km),Helgrindur,370020,103000,986,64.866,-23.283,299388,20018,753,2312,753
United States,United States,Eruption Dated,-3250,Basalt / Picro-Basalt, , , , , , , , , ,"31,0",Shield,NORTHERN AMERICA,Canada and Western USA,USA (Idaho),Rift zone / Continental crust (>25 km),Hell's Half Acre,324040,9631420,1631,43.5,-112.45,298444215,295506,305,12646,0
Iceland,Iceland,Eruption Dated,150,Basalt / Picro-Basalt,Andesite / Basaltic Andesite,Rhyolite, , , , , , , ,"2,9",Others,WESTERN EUROPE,Iceland and Arctic Ocean,Iceland (southwestern),Rift zone / Oceanic crust (< 15 km),Hengill,371050,103000,803,64.083,-21.416,299388,204855,5722,124106,5722
Spain,Spain,Eruption Observed,2012,Trachybasalt / Tephrite Basanite,Basalt / Picro-Basalt,Trachyandesite / Basaltic Trachyandesite, , ,Trachyte / Trachydacite,Foidite, , , ,"80,0",Shield,WESTERN EUROPE,Atlantic Ocean,Canary Islands,Intraplate / Oceanic crust (< 15 km),Hierro,383020,504782,1500,27.73,-18.03,40397842,43696,20321,20321,20321
Japan,Japan,Eruption Observed,1544,Andesite / Basaltic Andesite,Dacite, , , , , , , , ,"337,4",Stratovolcano,ASIA (EX. NEAR EAST),"Japan, Taiwan, Marianas",Honshu,Subduction zone / Continental crust (>25 km),Hiuchigatake,283131,377835,2356,36.955,139.285,127463611,7523509,720,18567,179
United Kingdom,United Kingdom,Evidence Credible,Unknown,Basalt / Picro-Basalt,Andesite / Basaltic Andesite, , , , , , , , ,"247,6",Stratovolcano,WESTERN EUROPE,Antarctica,Antarctica and South Sandwich Islands,Subduction zone / Oceanic crust (< 15 km),Hodson,390110,244820,835,-56.712,-27.176,60609153,0,0,0,0
Iceland,Iceland,Evidence Credible,Unknown,Basalt / Picro-Basalt,Rhyolite, , , , , , , , ,"2,9",Others,WESTERN EUROPE,Iceland and Arctic Ocean,Iceland (southwestern),Rift zone / Oceanic crust (< 15 km),Hofsjokull,371090,103000,1765,64.833,-18.766,299388,3436,0,0,0
Japan,Japan,Eruption Observed,2000,Andesite / Basaltic Andesite, , , , , , , , , ,"337,4",Stratovolcano,ASIA (EX. NEAR EAST),"Japan, Taiwan, Marianas",Hokkaido,Subduction zone / Continental crust (>25 km),Hokkaido-Komagatake,285020,377835,1131,42.063,140.677,127463611,962081,23091,234213,173
Kenya,Kenya,Evidence Credible,Unknown,Foidite,Phonolite, , , , , , , , ,"59,6",Complex,SUB-SAHARAN AFRICA,Africa and Red Sea,Africa (eastern),Rift zone / Continental crust (>25 km),Homa Mountain,222070,582650,1751,-0.38,34.5,34707817,10069120,60670,628701,16124
United States,United States,Eruption Observed,1866,Andesite / Basaltic Andesite, , , , ,Dacite, , , , ,"31,0",Stratovolcano,NORTHERN AMERICA,Canada and Western USA,USA (Oregon),Subduction zone / Continental crust (>25 km),Hood,322010,9631420,3426,45.374,-121.695,298444215,2067520,850,9721,0
Canada,Canada,Eruption Dated,-7050,Phonolite,Trachyte / Trachydacite, , , ,Basalt / Picro-Basalt, , , , ,"3,3",Others,NORTHERN AMERICA,Canada and Western USA,Canada,Intraplate / Continental crust (>25 km),Hoodoo Mountain,320080,9984670,1850,56.78,-131.28,33098932,2330,0,0,0
Iceland,Iceland,Evidence Uncertain,Unknown,Basalt / Picro-Basalt, , , , , , , , , ,"2,9",Stratovolcano,WESTERN EUROPE,Iceland and Arctic Ocean,Iceland (southwestern),Rift zone / Oceanic crust (< 15 km),Hromundartindur,371051,103000,550,64.083,-21.333,299388,201964,5738,26028,5738
United States,United States,Eruption Observed,1801,Basalt / Picro-Basalt, , , , ,Trachybasalt / Tephrite Basanite,Trachyte / Trachydacite, , , ,"31,0",Shield,NORTHERN AMERICA,Hawaii and Pacific Ocean,Hawaiian Islands,Intraplate / Oceanic crust (< 15 km),Hualalai,332040,9631420,2523,19.692,-155.87,298444215,166240,35906,46959,35906
Peru,Peru,Eruption Dated,-700,Trachyandesite / Basaltic Trachyandesite, , , , ,Andesite / Basaltic Andesite, , , , ,"22,0",Volcanic field,LATIN AMER. & CARIB,South America,Peru,Subduction zone / Continental crust (>25 km),Huambo,354005,1285220,4550,-15.83,-72.13,28302603,1028814,1157,7271,301
Argentina,Argentina,Eruption Dated,1750,Basalt / Picro-Basalt,Andesite / Basaltic Andesite, , , , , , , , ,"14,4",Stratovolcano,LATIN AMER. & CARIB,South America,Central Chile and Argentina,Subduction zone / Continental crust (>25 km),Huanquihue Group,357123,2766890,2189,-39.887,-71.58,39921833,190322,108,3515,22
Peru,Peru,Eruption Observed,1600,Dacite, , , , , , , , , ,"22,0",Stratovolcano,LATIN AMER. & CARIB,South America,Peru,Subduction zone / Continental crust (>25 km),Huaynaputina,354030,1285220,4850,-16.608,-70.85,28302603,1088509,210,9153,36
Chile,Chile,Eruption Observed,2011,Basalt / Picro-Basalt,Trachyandesite / Basaltic Trachyandesite,Trachyte / Trachydacite,Trachybasalt / Tephrite Basanite,Andesite / Basaltic Andesite, , , , , ,"21,3",Stratovolcano,LATIN AMER. & CARIB,South America,Southern Chile and Argentina,Subduction zone / Continental crust (>25 km),"Hudson, Cerro",358057,756950,1905,-45.9,-72.97,16134219,81642,12,28,0
Chile,Chile,Eruption Observed,1920,Andesite / Basaltic Andesite,Dacite, , , , , , , , ,"21,3",Lava dome,LATIN AMER. & CARIB,South America,Southern Chile and Argentina,Subduction zone / Continental crust (>25 km),Huequi,358030,756950,1318,-42.377,-72.578,16134219,107960,7,1076,0
Indonesia,Indonesia,Unrest / Holocene,Unknown,Andesite / Basaltic Andesite,Dacite,Basalt / Picro-Basalt, , , , , , , ,"127,9",Caldera,ASIA (EX. NEAR EAST),Indonesia,Sumatra,Subduction zone / Continental crust (>25 km),Hulubelu,261280,1919440,849,-5.334,104.59,245452739,4261988,56894,99405,56894
Indonesia,Indonesia,Unrest / Holocene,Unknown,Basalt / Picro-Basalt,Andesite / Basaltic Andesite, , , , , , , , ,"127,9",Others,ASIA (EX. NEAR EAST),Indonesia,Sumatra,Subduction zone / Continental crust (>25 km),Hululais,261200,1919440,2122,-3.247,102.239,245452739,1566370,21,45038,9
Mexico,Mexico,Eruption Dated,-4470,Rhyolite,Andesite / Basaltic Andesite,Dacite,Basalt / Picro-Basalt, ,Trachyte / Trachydacite, , , , ,"54,5",Caldera,LATIN AMER. & CARIB,México and Central America,Mexico,Subduction zone / Continental crust (>25 km),"Humeros, Los",341093,1972550,3150,19.68,-97.45,107449525,5710131,27331,566898,7461
